{
"type": "FeatureCollection",
"crs": { "type": "name", "properties": { "name": "urn:ogc:def:crs:OGC:1.3:CRS84" } },
"features": [
{ "type": "Feature", "properties": { "osm_type": "way", "osm_id": 563195646, "name": "nan", "full_name": "natural wood", "lat": -37.814227261266694, "lng": 144.97591579954599 }, "geometry": { "type": "Polygon", "coordinates": [ [ [ 144.974884300000014, -37.8135751 ], [ 144.975262500000014, -37.8134034 ], [ 144.975729199999989, -37.8133123 ], [ 144.975823100000014, -37.8133504 ], [ 144.9754529, -37.8135433 ], [ 144.9756755, -37.8138654 ], [ 144.976043, -37.8140539 ], [ 144.976018900000014, -37.8142192 ], [ 144.9760537, -37.8142743 ], [ 144.9762254, -37.8142701 ], [ 144.9764856, -37.8141281 ], [ 144.9767377, -37.8142425 ], [ 144.9767162, -37.8144269 ], [ 144.976499, -37.814501 ], [ 144.977011299999987, -37.8149693 ], [ 144.9769576, -37.8151579 ], [ 144.9765499, -37.8150626 ], [ 144.9762442, -37.8146812 ], [ 144.9758955, -37.8144714 ], [ 144.9756836, -37.8144057 ], [ 144.975469, -37.8144735 ], [ 144.9754207, -37.8145392 ], [ 144.9752947, -37.8144883 ], [ 144.9753081, -37.8143146 ], [ 144.9755307, -37.8141514 ], [ 144.9751498, -37.8137658 ], [ 144.9749835, -37.8139353 ], [ 144.9748199, -37.8139967 ], [ 144.9749272, -37.8137128 ], [ 144.974884300000014, -37.8135751 ] ] ] } },
{ "type": "Feature", "properties": { "osm_type": "node", "osm_id": 2692538948, "name": "nan", "full_name": "amenity bench check_date 2023-09-05 source survey backrest material wood seats 3", "lat": -37.8102661, "lng": 144.9731756 }, "geometry": { "type": "Point", "coordinates": [ 144.9731756, -37.8102661 ] } },
{ "type": "Feature", "properties": { "osm_type": "node", "osm_id": 6761103629, "name": "nan", "full_name": "amenity bench backrest", "lat": -37.8123523, "lng": 144.9745284 }, "geometry": { "type": "Point", "coordinates": [ 144.9745284, -37.8123523 ] } },
{ "type": "Feature", "properties": { "osm_type": "node", "osm_id": 7682216972, "name": "nan", "full_name": "amenity bench backrest", "lat": -37.8124311, "lng": 144.9738128 }, "geometry": { "type": "Point", "coordinates": [ 144.9738128, -37.8124311 ] } },
{ "type": "Feature", "properties": { "osm_type": "node", "osm_id": 6761103634, "name": "nan", "full_name": "amenity bench backrest", "lat": -37.8120985, "lng": 144.9747055 }, "geometry": { "type": "Point", "coordinates": [ 144.9747055, -37.8120985 ] } },
{ "type": "Feature", "properties": { "osm_type": "node", "osm_id": 6761103632, "name": "nan", "full_name": "amenity bench backrest", "lat": -37.8120795, "lng": 144.9747563 }, "geometry": { "type": "Point", "coordinates": [ 144.9747563, -37.8120795 ] } },
{ "type": "Feature", "properties": { "osm_type": "node", "osm_id": 6763458508, "name": "nan", "full_name": "amenity bench backrest", "lat": -37.8135277, "lng": 144.9747741 }, "geometry": { "type": "Point", "coordinates": [ 144.9747741, -37.8135277 ] } },
{ "type": "Feature", "properties": { "osm_type": "node", "osm_id": 6761103628, "name": "nan", "full_name": "amenity bench backrest", "lat": -37.812357, "lng": 144.9742623 }, "geometry": { "type": "Point", "coordinates": [ 144.9742623, -37.812357 ] } },
{ "type": "Feature", "properties": { "osm_type": "node", "osm_id": 6761103627, "name": "nan", "full_name": "amenity bench backrest", "lat": -37.8123879, "lng": 144.9748312 }, "geometry": { "type": "Point", "coordinates": [ 144.974831200000011, -37.8123879 ] } },
{ "type": "Feature", "properties": { "osm_type": "node", "osm_id": 6761103625, "name": "nan", "full_name": "amenity bench backrest", "lat": -37.8123362, "lng": 144.9748129 }, "geometry": { "type": "Point", "coordinates": [ 144.974812899999989, -37.8123362 ] } }
]
}
