{
"type": "FeatureCollection",
"crs": { "type": "name", "properties": { "name": "urn:ogc:def:crs:OGC:1.3:CRS84" } },
"features": [
{ "type": "Feature", "properties": { "osm_type": "node", "osm_id": 3841976982, "name": "I ♥️ This Shop", "full_name": "I ♥️ This Shop shop gift", "lat": -37.8095315, "lng": 144.9607826 }, "geometry": { "type": "Point", "coordinates": [ 144.960782599999987, -37.8095315 ] } },
{ "type": "Feature", "properties": { "osm_type": "node", "osm_id": 5982185671, "name": "D2M Salon", "full_name": "D2M Salon shop hairdresser", "lat": -37.8073882, "lng": 144.9602571 }, "geometry": { "type": "Point", "coordinates": [ 144.9602571, -37.8073882 ] } },
{ "type": "Feature", "properties": { "osm_type": "node", "osm_id": 10911277207, "name": "nan", "full_name": "shop florist", "lat": -37.8074065, "lng": 144.9584369 }, "geometry": { "type": "Point", "coordinates": [ 144.9584369, -37.8074065 ] } },
{ "type": "Feature", "properties": { "osm_type": "node", "osm_id": 3841983798, "name": "On The Way", "full_name": "On The Way shop bakery", "lat": -37.8100932, "lng": 144.9610365 }, "geometry": { "type": "Point", "coordinates": [ 144.9610365, -37.8100932 ] } },
{ "type": "Feature", "properties": { "osm_type": "node", "osm_id": 11261660472, "name": "Jen's Craft", "full_name": "Jen's Craft shop gift wheelchair ref O9-L97 level 0", "lat": -37.8078079, "lng": 144.9572978 }, "geometry": { "type": "Point", "coordinates": [ 144.9572978, -37.8078079 ] } },
{ "type": "Feature", "properties": { "osm_type": "node", "osm_id": 4739288145, "name": "City Mart", "full_name": "City Mart shop supermarket", "lat": -37.8067075, "lng": 144.9600612 }, "geometry": { "type": "Point", "coordinates": [ 144.960061200000013, -37.8067075 ] } },
{ "type": "Feature", "properties": { "osm_type": "node", "osm_id": 10911261803, "name": "nan", "full_name": "shop butcher", "lat": -37.8067548, "lng": 144.9584369 }, "geometry": { "type": "Point", "coordinates": [ 144.9584369, -37.8067548 ] } },
{ "type": "Feature", "properties": { "osm_type": "node", "osm_id": 3841983504, "name": "Elizabeth Nails", "full_name": "Elizabeth Nails shop beauty", "lat": -37.810026, "lng": 144.961006 }, "geometry": { "type": "Point", "coordinates": [ 144.961006, -37.810026 ] } },
{ "type": "Feature", "properties": { "osm_type": "node", "osm_id": 4671702790, "name": "The Workshop Bar", "full_name": "The Workshop Bar amenity bar", "lat": -37.8092084, "lng": 144.9606363 }, "geometry": { "type": "Point", "coordinates": [ 144.9606363, -37.8092084 ] } },
{ "type": "Feature", "properties": { "osm_type": "node", "osm_id": 11017144723, "name": "M&G Caiafa", "full_name": "M&G Caiafa shop bakery", "lat": -37.80685, "lng": 144.959152 }, "geometry": { "type": "Point", "coordinates": [ 144.959152, -37.80685 ] } }
]
}
