{
"type": "FeatureCollection",
"crs": { "type": "name", "properties": { "name": "urn:ogc:def:crs:OGC:1.3:CRS84" } },
"features": [
{ "type": "Feature", "properties": { "osm_type": "way", "osm_id": 290310949, "name": "nan", "full_name": "amenity parking access bin surface asphalt parking surface", "lat": -37.711948015518928, "lng": 142.84062127720762 }, "geometry": { "type": "Polygon", "coordinates": [ [ [ 142.840233500000011, -37.7122253 ], [ 142.840248, -37.711942 ], [ 142.8409078, -37.7116875 ], [ 142.841073200000011, -37.7119233 ], [ 142.840233500000011, -37.7122253 ] ] ] } },
{ "type": "Feature", "properties": { "osm_type": "node", "osm_id": 2938657248, "name": "Lake Bolac Diner and Cafe", "full_name": "Lake Bolac Diner and Cafe amenity cafe takeaway", "lat": -37.7125301, "lng": 142.8403661 }, "geometry": { "type": "Point", "coordinates": [ 142.840366100000011, -37.7125301 ] } },
{ "type": "Feature", "properties": { "osm_type": "node", "osm_id": 2938657252, "name": "nan", "full_name": "amenity bbq covered", "lat": -37.7117133, "lng": 142.8403752 }, "geometry": { "type": "Point", "coordinates": [ 142.840375200000011, -37.7117133 ] } },
{ "type": "Feature", "properties": { "osm_type": "node", "osm_id": 11507193094, "name": "Lake Bolac Licensed Supermarket", "full_name": "Lake Bolac Licensed Supermarket shop supermarket", "lat": -37.7123253, "lng": 142.8392691 }, "geometry": { "type": "Point", "coordinates": [ 142.8392691, -37.7123253 ] } },
{ "type": "Feature", "properties": { "osm_type": "node", "osm_id": 11507193111, "name": "nan", "full_name": "amenity shelter bin shelter_type public_transport", "lat": -37.7120422, "lng": 142.8404959 }, "geometry": { "type": "Point", "coordinates": [ 142.8404959, -37.7120422 ] } },
{ "type": "Feature", "properties": { "osm_type": "node", "osm_id": 2938657249, "name": "Lake Bolac Information Centre", "full_name": "Lake Bolac Information Centre information office tourism information", "lat": -37.7115911, "lng": 142.8407806 }, "geometry": { "type": "Point", "coordinates": [ 142.840780599999988, -37.7115911 ] } },
{ "type": "Feature", "properties": { "osm_type": "node", "osm_id": 10184611930, "name": "nan", "full_name": "amenity charging_station operator EVup", "lat": -37.7117289, "lng": 142.8409671 }, "geometry": { "type": "Point", "coordinates": [ 142.8409671, -37.7117289 ] } },
{ "type": "Feature", "properties": { "osm_type": "node", "osm_id": 2938657250, "name": "Lake Bolac Library", "full_name": "Lake Bolac Library amenity library", "lat": -37.7116026, "lng": 142.8408388 }, "geometry": { "type": "Point", "coordinates": [ 142.8408388, -37.7116026 ] } },
{ "type": "Feature", "properties": { "osm_type": "node", "osm_id": 2938657255, "name": "Lake Bolac Visitiors Centre", "full_name": "Lake Bolac Visitiors Centre amenity toilets access female male wheelchair", "lat": -37.7120225, "lng": 142.8400735 }, "geometry": { "type": "Point", "coordinates": [ 142.840073499999988, -37.7120225 ] } },
{ "type": "Feature", "properties": { "osm_type": "node", "osm_id": 598180807, "name": "Lake Bolac", "full_name": "Lake Bolac place town population 218", "lat": -37.7125983, "lng": 142.839647 }, "geometry": { "type": "Point", "coordinates": [ 142.839647, -37.7125983 ] } }
]
}
