{
"type": "FeatureCollection",
"crs": { "type": "name", "properties": { "name": "urn:ogc:def:crs:OGC:1.3:CRS84" } },
"features": [
{ "type": "Feature", "properties": { "osm_type": "node", "osm_id": 2212666315, "name": "Stop 33: Arthurton Road", "full_name": "Stop 33: Arthurton Road operator Yarra Trams network PTV - Metropolitan Trams public_transport stop_position railway tram_stop ref 33 tram", "lat": -37.7694231, "lng": 144.998986 }, "geometry": { "type": "Point", "coordinates": [ 144.998986, -37.7694231 ] } },
{ "type": "Feature", "properties": { "osm_type": "node", "osm_id": 2214210005, "name": "Stop 34: Bent Street", "full_name": "Stop 34: Bent Street operator Yarra Trams network PTV - Metropolitan Trams public_transport stop_position railway tram_stop ref 34 tram", "lat": -37.7676044, "lng": 144.9991836 }, "geometry": { "type": "Point", "coordinates": [ 144.9991836, -37.7676044 ] } },
{ "type": "Feature", "properties": { "osm_type": "node", "osm_id": 2214188146, "name": "Stop 33: Separation Street", "full_name": "Stop 33: Separation Street operator Yarra Trams network PTV - Metropolitan Trams public_transport stop_position railway tram_stop ref 33 tram", "lat": -37.7692075, "lng": 144.9990699 }, "geometry": { "type": "Point", "coordinates": [ 144.9990699, -37.7692075 ] } },
{ "type": "Feature", "properties": { "osm_type": "node", "osm_id": 4309104669, "name": "Stop 32: Mitchell Street", "full_name": "Stop 32: Mitchell Street operator Yarra Trams network PTV - Metropolitan Trams public_transport stop_position railway tram_stop ref 32 tram", "lat": -37.7710961, "lng": 144.9986446 }, "geometry": { "type": "Point", "coordinates": [ 144.9986446, -37.7710961 ] } },
{ "type": "Feature", "properties": { "osm_type": "node", "osm_id": 2214210006, "name": "Stop 34: McCutcheon Street", "full_name": "Stop 34: McCutcheon Street operator Yarra Trams network PTV - Metropolitan Trams public_transport stop_position railway tram_stop ref 34 tram", "lat": -37.7675854, "lng": 144.999222 }, "geometry": { "type": "Point", "coordinates": [ 144.999222, -37.7675854 ] } },
{ "type": "Feature", "properties": { "osm_type": "node", "osm_id": 10911298395, "name": "nan", "full_name": "railway tram_crossing", "lat": -37.7692581, "lng": 144.9990595 }, "geometry": { "type": "Point", "coordinates": [ 144.999059499999987, -37.7692581 ] } },
{ "type": "Feature", "properties": { "osm_type": "node", "osm_id": 10911298393, "name": "nan", "full_name": "railway tram_crossing", "lat": -37.7692582, "lng": 144.9990204 }, "geometry": { "type": "Point", "coordinates": [ 144.9990204, -37.7692582 ] } },
{ "type": "Feature", "properties": { "osm_type": "node", "osm_id": 10852718216, "name": "nan", "full_name": "railway tram_crossing", "lat": -37.77047, "lng": 144.9987724 }, "geometry": { "type": "Point", "coordinates": [ 144.9987724, -37.77047 ] } },
{ "type": "Feature", "properties": { "osm_type": "node", "osm_id": 10852718215, "name": "nan", "full_name": "railway tram_crossing", "lat": -37.7704753, "lng": 144.9988104 }, "geometry": { "type": "Point", "coordinates": [ 144.9988104, -37.7704753 ] } },
{ "type": "Feature", "properties": { "osm_type": "way", "osm_id": 211245821, "name": "Stop 32: Mitchell Street", "full_name": "Stop 32: Mitchell Street wheelchair operator Yarra Trams tactile_paving network PTV - Metropolitan Trams public_transport platform railway platform tram route_ref 86", "lat": -37.771244536539896, "lng": 144.99857478812243 }, "geometry": { "type": "Polygon", "coordinates": [ [ [ 144.9985873, -37.7710783 ], [ 144.998629200000011, -37.7710837 ], [ 144.9985622, -37.7714109 ], [ 144.9985204, -37.7714055 ], [ 144.9985873, -37.7710783 ] ] ] } }
]
}
