{
"type": "FeatureCollection",
"crs": { "type": "name", "properties": { "name": "urn:ogc:def:crs:OGC:1.3:CRS84" } },
"features": [
{ "type": "Feature", "properties": { "osm_type": "node", "osm_id": 1427083075, "name": "Recycled Delightful", "full_name": "Recycled Delightful shop art", "lat": -37.780549, "lng": 144.9966341 }, "geometry": { "type": "Point", "coordinates": [ 144.9966341, -37.780549 ] } },
{ "type": "Feature", "properties": { "osm_type": "node", "osm_id": 5319567781, "name": "Know Your Product", "full_name": "Know Your Product shop furniture description Upholstery service furniture vintage", "lat": -37.7790067, "lng": 144.9967255 }, "geometry": { "type": "Point", "coordinates": [ 144.9967255, -37.7790067 ] } },
{ "type": "Feature", "properties": { "osm_type": "node", "osm_id": 5110148991, "name": "Fresh Skin Canvas", "full_name": "Fresh Skin Canvas shop beauty", "lat": -37.7792195, "lng": 144.9971794 }, "geometry": { "type": "Point", "coordinates": [ 144.9971794, -37.7792195 ] } },
{ "type": "Feature", "properties": { "osm_type": "node", "osm_id": 11276556024, "name": "17sundays", "full_name": "17sundays shop clothes", "lat": -37.7807253, "lng": 144.9968918 }, "geometry": { "type": "Point", "coordinates": [ 144.996891799999986, -37.7807253 ] } },
{ "type": "Feature", "properties": { "osm_type": "node", "osm_id": 3399015288, "name": "Westgarth Fish & Chips", "full_name": "Westgarth Fish & Chips amenity fast_food cuisine fish_and_chips source mapillary", "lat": -37.7797264, "lng": 144.9967513 }, "geometry": { "type": "Point", "coordinates": [ 144.9967513, -37.7797264 ] } },
{ "type": "Feature", "properties": { "osm_type": "node", "osm_id": 7192604597, "name": "Ruckers Hill", "full_name": "Ruckers Hill amenity restaurant phone +61 3 9826 9612", "lat": -37.7802475, "lng": 144.9966879 }, "geometry": { "type": "Point", "coordinates": [ 144.996687900000012, -37.7802475 ] } },
{ "type": "Feature", "properties": { "osm_type": "node", "osm_id": 2097601264, "name": "UltraTune", "full_name": "UltraTune shop car_repair", "lat": -37.780904, "lng": 144.997033 }, "geometry": { "type": "Point", "coordinates": [ 144.997033, -37.780904 ] } },
{ "type": "Feature", "properties": { "osm_type": "node", "osm_id": 1435248023, "name": "Phil's Bakehouse & Cafe", "full_name": "Phil's Bakehouse & Cafe shop bakery", "lat": -37.7804897, "lng": 144.9969365 }, "geometry": { "type": "Point", "coordinates": [ 144.9969365, -37.7804897 ] } },
{ "type": "Feature", "properties": { "osm_type": "node", "osm_id": 7855746176, "name": "Scented Naturally Wellness Centre", "full_name": "Scented Naturally Wellness Centre phone +61 3 9482 5380 shop beauty", "lat": -37.7795414, "lng": 144.997115 }, "geometry": { "type": "Point", "coordinates": [ 144.997115, -37.7795414 ] } },
{ "type": "Feature", "properties": { "osm_type": "way", "osm_id": 227723804, "name": "nan", "full_name": "source Bing landuse retail", "lat": -37.780092913626881, "lng": 144.996860635117 }, "geometry": { "type": "Polygon", "coordinates": [ [ [ 144.9973177, -37.780006 ], [ 144.99735720000001, -37.7801456 ], [ 144.9972002, -37.7810565 ], [ 144.9961987, -37.7809401 ], [ 144.9962064, -37.7808986 ], [ 144.9964167, -37.7797658 ], [ 144.996428400000013, -37.7797028 ], [ 144.9964362, -37.7796608 ], [ 144.9964454, -37.7796114 ], [ 144.996455, -37.7795611 ], [ 144.9964639, -37.7795122 ], [ 144.996530799999988, -37.7791523 ], [ 144.9969116, -37.7791831 ], [ 144.9971147, -37.7791996 ], [ 144.997127299999988, -37.7791588 ], [ 144.9975341, -37.7792067 ], [ 144.9974545, -37.7796396 ], [ 144.9974081, -37.7796322 ], [ 144.9973177, -37.780006 ] ] ] } }
]
}
