{
"type": "FeatureCollection",
"crs": { "type": "name", "properties": { "name": "urn:ogc:def:crs:OGC:1.3:CRS84" } },
"features": [
{ "type": "Feature", "properties": { "osm_type": "way", "osm_id": 32001338, "name": "100 Steps to Federation", "full_name": "100 Steps to Federation foot highway steps", "lat": -37.882662085322373, "lng": 144.79664703819705 }, "geometry": { "type": "LineString", "coordinates": [ [ 144.7963634, -37.882205 ], [ 144.796372, -37.8822863 ], [ 144.7964063, -37.8823946 ], [ 144.796457800000013, -37.882503 ], [ 144.7965351, -37.8825979 ], [ 144.7966295, -37.8826656 ], [ 144.7967325, -37.8827334 ], [ 144.7968012, -37.8827943 ], [ 144.7968784, -37.8828824 ], [ 144.7969213, -37.8829772 ], [ 144.796947100000011, -37.8830382 ], [ 144.7969556, -37.883106 ] ] } },
{ "type": "Feature", "properties": { "osm_type": "node", "osm_id": 6415813606, "name": "nan", "full_name": "circumference 0.45 natural tree source data.gov.au:Hobsons Bay City Council species Acacia iteaphylla", "lat": -37.88352, "lng": 144.797317 }, "geometry": { "type": "Point", "coordinates": [ 144.797317, -37.88352 ] } },
{ "type": "Feature", "properties": { "osm_type": "node", "osm_id": 6415811150, "name": "nan", "full_name": "circumference 0.15 natural tree source data.gov.au:Hobsons Bay City Council species Eucalyptus ovata", "lat": -37.882305, "lng": 144.79588 }, "geometry": { "type": "Point", "coordinates": [ 144.79588, -37.882305 ] } },
{ "type": "Feature", "properties": { "osm_type": "node", "osm_id": 6415814533, "name": "nan", "full_name": "circumference 0.15 natural tree source data.gov.au:Hobsons Bay City Council species Eucalyptus ovata", "lat": -37.882332, "lng": 144.795944 }, "geometry": { "type": "Point", "coordinates": [ 144.795944, -37.882332 ] } },
{ "type": "Feature", "properties": { "osm_type": "node", "osm_id": 6415812598, "name": "nan", "full_name": "circumference 0.3 natural tree source data.gov.au:Hobsons Bay City Council species Eucalyptus ovata", "lat": -37.88234, "lng": 144.795564 }, "geometry": { "type": "Point", "coordinates": [ 144.795564, -37.88234 ] } },
{ "type": "Feature", "properties": { "osm_type": "node", "osm_id": 6415806568, "name": "nan", "full_name": "circumference 0.3 natural tree source data.gov.au:Hobsons Bay City Council species Eucalyptus ovata", "lat": -37.882377, "lng": 144.795521 }, "geometry": { "type": "Point", "coordinates": [ 144.795521, -37.882377 ] } },
{ "type": "Feature", "properties": { "osm_type": "node", "osm_id": 6415810700, "name": "nan", "full_name": "circumference 0.3 natural tree source data.gov.au:Hobsons Bay City Council species Eucalyptus ovata", "lat": -37.882319, "lng": 144.795759 }, "geometry": { "type": "Point", "coordinates": [ 144.795759, -37.882319 ] } },
{ "type": "Feature", "properties": { "osm_type": "node", "osm_id": 6415810262, "name": "nan", "full_name": "circumference 0.3 natural tree source data.gov.au:Hobsons Bay City Council species Eucalyptus ovata", "lat": -37.882354, "lng": 144.795577 }, "geometry": { "type": "Point", "coordinates": [ 144.795577, -37.882354 ] } },
{ "type": "Feature", "properties": { "osm_type": "node", "osm_id": 6415813949, "name": "nan", "full_name": "circumference 0.3 natural tree source data.gov.au:Hobsons Bay City Council species Eucalyptus ovata", "lat": -37.882283, "lng": 144.795858 }, "geometry": { "type": "Point", "coordinates": [ 144.795858, -37.882283 ] } },
{ "type": "Feature", "properties": { "osm_type": "node", "osm_id": 6415809915, "name": "nan", "full_name": "circumference 0.3 natural tree source data.gov.au:Hobsons Bay City Council species Eucalyptus ovata", "lat": -37.882409, "lng": 144.795541 }, "geometry": { "type": "Point", "coordinates": [ 144.795541, -37.882409 ] } }
]
}
