{
"type": "FeatureCollection",
"crs": { "type": "name", "properties": { "name": "urn:ogc:def:crs:OGC:1.3:CRS84" } },
"features": [
{ "type": "Feature", "properties": { "osm_type": "node", "osm_id": 11466832539, "name": "Cafe Kinetic", "full_name": "Cafe Kinetic amenity cafe level 0 wheelchair limited outdoor_seating cuisine coffee_shop takeaway", "lat": -37.8153921, "lng": 144.9709267 }, "geometry": { "type": "Point", "coordinates": [ 144.9709267, -37.8153921 ] } },
{ "type": "Feature", "properties": { "osm_type": "node", "osm_id": 2215598766, "name": "Beer De Luxe", "full_name": "Beer De Luxe amenity pub level 0;1 phone +61 3 9810 0093 wheelchair opening_hours Mo-Th 12:00-22:00; Fr-Sa 12:00-23:00; Su 12:00-21:00 outdoor_seating brewery various", "lat": -37.8175422, "lng": 144.9694062 }, "geometry": { "type": "Point", "coordinates": [ 144.9694062, -37.8175422 ] } },
{ "type": "Feature", "properties": { "osm_type": "node", "osm_id": 6316826994, "name": "Lune Croissants", "full_name": "Lune Croissants amenity cafe level 0 check_date 2022-07-19 opening_hours Mo-Fr 07:30-15:00; Sa-Su 08:00-15:00", "lat": -37.8155697, "lng": 144.9691638 }, "geometry": { "type": "Point", "coordinates": [ 144.9691638, -37.8155697 ] } },
{ "type": "Feature", "properties": { "osm_type": "node", "osm_id": 2960533034, "name": "Café Bisqui", "full_name": "Café Bisqui amenity cafe opening_hours Mo-Fr 7:00-16:00; Sa 8:00-14:00", "lat": -37.816372, "lng": 144.970547 }, "geometry": { "type": "Point", "coordinates": [ 144.970547, -37.816372 ] } },
{ "type": "Feature", "properties": { "osm_type": "node", "osm_id": 10252899509, "name": "A Hereford Beefstouw", "full_name": "A Hereford Beefstouw amenity restaurant phone +61 3 9654 8297 opening_hours Su-Mo,Sa 17:30-22:30; Tu-Fr 11:30-22:30 cuisine steak_house", "lat": -37.8157916, "lng": 144.9713041 }, "geometry": { "type": "Point", "coordinates": [ 144.9713041, -37.8157916 ] } },
{ "type": "Feature", "properties": { "osm_type": "node", "osm_id": 4312017190, "name": "Bowery to Williamsburg", "full_name": "Bowery to Williamsburg amenity cafe opening_hours Mo-Fr 07:30-15:00; Sa-Su 08:30-15:00", "lat": -37.8161924, "lng": 144.9701951 }, "geometry": { "type": "Point", "coordinates": [ 144.970195100000012, -37.8161924 ] } },
{ "type": "Feature", "properties": { "osm_type": "node", "osm_id": 706917145, "name": "7-Eleven", "full_name": "7-Eleven level 0 brand 7-Eleven shop convenience", "lat": -37.817579, "lng": 144.9683001 }, "geometry": { "type": "Point", "coordinates": [ 144.9683001, -37.817579 ] } },
{ "type": "Feature", "properties": { "osm_type": "node", "osm_id": 663917416, "name": "Swiss Club Restaurant", "full_name": "Swiss Club Restaurant amenity restaurant cuisine swiss", "lat": -37.8152846, "lng": 144.9713233 }, "geometry": { "type": "Point", "coordinates": [ 144.9713233, -37.8152846 ] } },
{ "type": "Feature", "properties": { "osm_type": "node", "osm_id": 4936374478, "name": "MoVida", "full_name": "MoVida amenity restaurant phone +61 3 9663 3038 opening_hours Mo-Tu 12:00-22:00; We-Su 12:00-22:30 cuisine tapas", "lat": -37.8165887, "lng": 144.9691595 }, "geometry": { "type": "Point", "coordinates": [ 144.969159499999989, -37.8165887 ] } },
{ "type": "Feature", "properties": { "osm_type": "node", "osm_id": 663914526, "name": "Grill'd", "full_name": "Grill'd amenity fast_food brand Grill'd phone +61 3 9650 5011 wheelchair building retail opening_hours Mo-Su 11:00-22:00 outdoor_seating cuisine burger takeaway", "lat": -37.8151993, "lng": 144.9716261 }, "geometry": { "type": "Point", "coordinates": [ 144.9716261, -37.8151993 ] } }
]
}
