{
"type": "FeatureCollection",
"crs": { "type": "name", "properties": { "name": "urn:ogc:def:crs:OGC:1.3:CRS84" } },
"features": [
{ "type": "Feature", "properties": { "osm_type": "way", "osm_id": 42555579, "name": "nan", "full_name": "leisure playground", "lat": -37.821762383812171, "lng": 144.94726430838358 }, "geometry": { "type": "Polygon", "coordinates": [ [ [ 144.9473634, -37.821492 ], [ 144.9473463, -37.8215052 ], [ 144.947192699999988, -37.8216238 ], [ 144.9470326, -37.8217597 ], [ 144.9470882, -37.8219589 ], [ 144.9474955, -37.8218719 ], [ 144.9474717, -37.8217742 ], [ 144.947454099999987, -37.8217391 ], [ 144.9474209, -37.8216921 ], [ 144.947395199999988, -37.8216077 ], [ 144.9473748, -37.8215236 ], [ 144.9473634, -37.821492 ] ] ] } },
{ "type": "Feature", "properties": { "osm_type": "node", "osm_id": 3375919551, "name": "Pho & Bakery", "full_name": "Pho & Bakery amenity restaurant wheelchair", "lat": -37.8213354, "lng": 144.9452234 }, "geometry": { "type": "Point", "coordinates": [ 144.9452234, -37.8213354 ] } },
{ "type": "Feature", "properties": { "osm_type": "node", "osm_id": 6743435134, "name": "nan", "full_name": "leisure picnic_table", "lat": -37.8208563, "lng": 144.9465711 }, "geometry": { "type": "Point", "coordinates": [ 144.9465711, -37.8208563 ] } },
{ "type": "Feature", "properties": { "osm_type": "node", "osm_id": 6741639486, "name": "nan", "full_name": "leisure picnic_table", "lat": -37.8219453, "lng": 144.9472794 }, "geometry": { "type": "Point", "coordinates": [ 144.947279400000014, -37.8219453 ] } },
{ "type": "Feature", "properties": { "osm_type": "node", "osm_id": 6743436215, "name": "nan", "full_name": "leisure picnic_table", "lat": -37.8208281, "lng": 144.9465516 }, "geometry": { "type": "Point", "coordinates": [ 144.9465516, -37.8208281 ] } },
{ "type": "Feature", "properties": { "osm_type": "node", "osm_id": 6699795715, "name": "nan", "full_name": "leisure picnic_table", "lat": -37.8204861, "lng": 144.9448052 }, "geometry": { "type": "Point", "coordinates": [ 144.9448052, -37.8204861 ] } },
{ "type": "Feature", "properties": { "osm_type": "node", "osm_id": 6699781932, "name": "nan", "full_name": "leisure picnic_table", "lat": -37.8204905, "lng": 144.9448345 }, "geometry": { "type": "Point", "coordinates": [ 144.944834500000013, -37.8204905 ] } },
{ "type": "Feature", "properties": { "osm_type": "node", "osm_id": 6741639608, "name": "nan", "full_name": "leisure picnic_table", "lat": -37.8219547, "lng": 144.9472274 }, "geometry": { "type": "Point", "coordinates": [ 144.9472274, -37.8219547 ] } },
{ "type": "Feature", "properties": { "osm_type": "node", "osm_id": 6699795729, "name": "nan", "full_name": "leisure picnic_table", "lat": -37.8205673, "lng": 144.9453676 }, "geometry": { "type": "Point", "coordinates": [ 144.9453676, -37.8205673 ] } },
{ "type": "Feature", "properties": { "osm_type": "node", "osm_id": 6699795801, "name": "nan", "full_name": "leisure picnic_table", "lat": -37.8204634, "lng": 144.9447918 }, "geometry": { "type": "Point", "coordinates": [ 144.9447918, -37.8204634 ] } }
]
}
