{
"type": "FeatureCollection",
"crs": { "type": "name", "properties": { "name": "urn:ogc:def:crs:OGC:1.3:CRS84" } },
"features": [
{ "type": "Feature", "properties": { "osm_type": "way", "osm_id": 74112103, "name": "Rupertswood Lake", "full_name": "Rupertswood Lake natural water source nearmap area designation Lake", "lat": -37.573286370947983, "lng": 144.7348386808986 }, "geometry": { "type": "Polygon", "coordinates": [ [ [ 144.7355034, -37.5729238 ], [ 144.7354619, -37.5730152 ], [ 144.7354252, -37.573193 ], [ 144.7353808, -37.5733594 ], [ 144.7353281, -37.5735077 ], [ 144.7352721, -37.5736255 ], [ 144.7352024, -37.5737087 ], [ 144.7351165, -37.5738095 ], [ 144.735055499999987, -37.573905 ], [ 144.73494740000001, -37.5739798 ], [ 144.7348508, -37.5739883 ], [ 144.7347704, -37.5739416 ], [ 144.7346631, -37.573831 ], [ 144.7345451, -37.5736822 ], [ 144.7344646, -37.5735887 ], [ 144.734309, -37.5734356 ], [ 144.734191, -37.5733123 ], [ 144.734158799999989, -37.5732018 ], [ 144.7341535, -37.5730742 ], [ 144.7342286, -37.5729339 ], [ 144.7343627, -37.5727979 ], [ 144.7345022, -37.5727341 ], [ 144.7346148, -37.5727298 ], [ 144.73473820000001, -37.5727553 ], [ 144.734721, -37.5727998 ], [ 144.7346924, -37.5728309 ], [ 144.7346624, -37.5728389 ], [ 144.7345999, -37.5728864 ], [ 144.7345386, -37.5729209 ], [ 144.7345364, -37.5729641 ], [ 144.734577300000012, -37.5730229 ], [ 144.734661499999987, -37.5730521 ], [ 144.7347617, -37.5730325 ], [ 144.7348064, -37.5729913 ], [ 144.7347895, -37.5729271 ], [ 144.7347737, -37.5728559 ], [ 144.7347973, -37.5728046 ], [ 144.7348455, -37.5728021 ], [ 144.7349635, -37.5728064 ], [ 144.73515660000001, -37.5728234 ], [ 144.735221, -37.5728446 ], [ 144.7353444, -37.5728361 ], [ 144.7354248, -37.5727979 ], [ 144.735507500000011, -37.5728149 ], [ 144.7355034, -37.5729238 ] ] ] } },
{ "type": "Feature", "properties": { "osm_type": "node", "osm_id": 8745882412, "name": "nan", "full_name": "natural tree", "lat": -37.5720893, "lng": 144.7318049 }, "geometry": { "type": "Point", "coordinates": [ 144.731804899999986, -37.5720893 ] } },
{ "type": "Feature", "properties": { "osm_type": "node", "osm_id": 8745882413, "name": "nan", "full_name": "natural tree", "lat": -37.5723965, "lng": 144.7320057 }, "geometry": { "type": "Point", "coordinates": [ 144.7320057, -37.5723965 ] } },
{ "type": "Feature", "properties": { "osm_type": "node", "osm_id": 8749367858, "name": "nan", "full_name": "natural tree", "lat": -37.5731375, "lng": 144.7319731 }, "geometry": { "type": "Point", "coordinates": [ 144.7319731, -37.5731375 ] } },
{ "type": "Feature", "properties": { "osm_type": "node", "osm_id": 8749367859, "name": "nan", "full_name": "natural tree", "lat": -37.5730667, "lng": 144.7315386 }, "geometry": { "type": "Point", "coordinates": [ 144.7315386, -37.5730667 ] } },
{ "type": "Feature", "properties": { "osm_type": "node", "osm_id": 8749367860, "name": "nan", "full_name": "natural tree", "lat": -37.57303, "lng": 144.7313753 }, "geometry": { "type": "Point", "coordinates": [ 144.7313753, -37.57303 ] } },
{ "type": "Feature", "properties": { "osm_type": "node", "osm_id": 8835793057, "name": "nan", "full_name": "natural tree", "lat": -37.5744658, "lng": 144.7335899 }, "geometry": { "type": "Point", "coordinates": [ 144.7335899, -37.5744658 ] } },
{ "type": "Feature", "properties": { "osm_type": "node", "osm_id": 8835793058, "name": "nan", "full_name": "natural tree", "lat": -37.5744473, "lng": 144.7334755 }, "geometry": { "type": "Point", "coordinates": [ 144.7334755, -37.5744473 ] } },
{ "type": "Feature", "properties": { "osm_type": "node", "osm_id": 8971339368, "name": "nan", "full_name": "natural tree", "lat": -37.5740199, "lng": 144.7330596 }, "geometry": { "type": "Point", "coordinates": [ 144.7330596, -37.5740199 ] } },
{ "type": "Feature", "properties": { "osm_type": "node", "osm_id": 8835793060, "name": "nan", "full_name": "natural tree", "lat": -37.5743696, "lng": 144.73426 }, "geometry": { "type": "Point", "coordinates": [ 144.73426, -37.5743696 ] } }
]
}
