{
"type": "FeatureCollection",
"crs": { "type": "name", "properties": { "name": "urn:ogc:def:crs:OGC:1.3:CRS84" } },
"features": [
{ "type": "Feature", "properties": { "osm_type": "node", "osm_id": 6417262928, "name": "nan", "full_name": "source data.gov.au:Hobsons Bay City Council natural tree circumference 0.3 species Lophostemon confertus", "lat": -37.869545, "lng": 144.831368 }, "geometry": { "type": "Point", "coordinates": [ 144.831368, -37.869545 ] } },
{ "type": "Feature", "properties": { "osm_type": "node", "osm_id": 6417262877, "name": "nan", "full_name": "source data.gov.au:Hobsons Bay City Council natural tree circumference 0.3 species Lophostemon confertus", "lat": -37.869521, "lng": 144.831788 }, "geometry": { "type": "Point", "coordinates": [ 144.831788, -37.869521 ] } },
{ "type": "Feature", "properties": { "osm_type": "node", "osm_id": 6417263393, "name": "nan", "full_name": "source data.gov.au:Hobsons Bay City Council natural tree circumference 0.3 species Lophostemon confertus", "lat": -37.870243, "lng": 144.834831 }, "geometry": { "type": "Point", "coordinates": [ 144.834831, -37.870243 ] } },
{ "type": "Feature", "properties": { "osm_type": "node", "osm_id": 6417263094, "name": "nan", "full_name": "source data.gov.au:Hobsons Bay City Council natural tree circumference 0.3 species Washingtonia filifera", "lat": -37.87041, "lng": 144.834135 }, "geometry": { "type": "Point", "coordinates": [ 144.834135, -37.87041 ] } },
{ "type": "Feature", "properties": { "osm_type": "node", "osm_id": 6417262506, "name": "nan", "full_name": "source data.gov.au:Hobsons Bay City Council natural tree circumference 0.3 species Washingtonia filifera", "lat": -37.870421, "lng": 144.834141 }, "geometry": { "type": "Point", "coordinates": [ 144.834141, -37.870421 ] } },
{ "type": "Feature", "properties": { "osm_type": "node", "osm_id": 6417263351, "name": "nan", "full_name": "source data.gov.au:Hobsons Bay City Council natural tree circumference 0.45 species Corymbia ficifolia", "lat": -37.869375, "lng": 144.834304 }, "geometry": { "type": "Point", "coordinates": [ 144.834304, -37.869375 ] } },
{ "type": "Feature", "properties": { "osm_type": "node", "osm_id": 6417262402, "name": "nan", "full_name": "source data.gov.au:Hobsons Bay City Council natural tree circumference 0.45 species Corymbia ficifolia", "lat": -37.870101, "lng": 144.833669 }, "geometry": { "type": "Point", "coordinates": [ 144.833669, -37.870101 ] } },
{ "type": "Feature", "properties": { "osm_type": "node", "osm_id": 6417261950, "name": "nan", "full_name": "source data.gov.au:Hobsons Bay City Council natural tree circumference 0.45 species Corymbia ficifolia", "lat": -37.869319, "lng": 144.83432 }, "geometry": { "type": "Point", "coordinates": [ 144.83432, -37.869319 ] } },
{ "type": "Feature", "properties": { "osm_type": "node", "osm_id": 6417261941, "name": "nan", "full_name": "source data.gov.au:Hobsons Bay City Council natural tree circumference 0.6 species Corymbia ficifolia", "lat": -37.86939, "lng": 144.831278 }, "geometry": { "type": "Point", "coordinates": [ 144.831278, -37.86939 ] } },
{ "type": "Feature", "properties": { "osm_type": "node", "osm_id": 6417262116, "name": "nan", "full_name": "source data.gov.au:Hobsons Bay City Council natural tree circumference 0.6 species Corymbia ficifolia", "lat": -37.869312, "lng": 144.832931 }, "geometry": { "type": "Point", "coordinates": [ 144.832931, -37.869312 ] } }
]
}
