{
"type": "FeatureCollection",
"crs": { "type": "name", "properties": { "name": "urn:ogc:def:crs:OGC:1.3:CRS84" } },
"features": [
{ "type": "Feature", "properties": { "osm_type": "way", "osm_id": 32001338, "name": "100 Steps to Federation", "full_name": "100 Steps to Federation foot highway steps", "lat": -37.882662085322373, "lng": 144.79664703819705 }, "geometry": { "type": "LineString", "coordinates": [ [ 144.7963634, -37.882205 ], [ 144.796372, -37.8822863 ], [ 144.7964063, -37.8823946 ], [ 144.796457800000013, -37.882503 ], [ 144.7965351, -37.8825979 ], [ 144.7966295, -37.8826656 ], [ 144.7967325, -37.8827334 ], [ 144.7968012, -37.8827943 ], [ 144.7968784, -37.8828824 ], [ 144.7969213, -37.8829772 ], [ 144.796947100000011, -37.8830382 ], [ 144.7969556, -37.883106 ] ] } },
{ "type": "Feature", "properties": { "osm_type": "node", "osm_id": 6415805970, "name": "nan", "full_name": "source data.gov.au:Hobsons Bay City Council circumference 0.75 natural tree species Eucalyptus cladocalyx", "lat": -37.881291, "lng": 144.79482 }, "geometry": { "type": "Point", "coordinates": [ 144.79482, -37.881291 ] } },
{ "type": "Feature", "properties": { "osm_type": "node", "osm_id": 6415803717, "name": "nan", "full_name": "source data.gov.au:Hobsons Bay City Council circumference 0.75 natural tree species Eucalyptus cladocalyx", "lat": -37.88183, "lng": 144.79471 }, "geometry": { "type": "Point", "coordinates": [ 144.79471, -37.88183 ] } },
{ "type": "Feature", "properties": { "osm_type": "node", "osm_id": 6415807302, "name": "nan", "full_name": "source data.gov.au:Hobsons Bay City Council circumference 0.45 natural tree species Eucalyptus cladocalyx", "lat": -37.880366, "lng": 144.794611 }, "geometry": { "type": "Point", "coordinates": [ 144.794611, -37.880366 ] } },
{ "type": "Feature", "properties": { "osm_type": "node", "osm_id": 6415809949, "name": "nan", "full_name": "source data.gov.au:Hobsons Bay City Council circumference 0.45 natural tree species Eucalyptus cladocalyx", "lat": -37.880221, "lng": 144.794623 }, "geometry": { "type": "Point", "coordinates": [ 144.794623, -37.880221 ] } },
{ "type": "Feature", "properties": { "osm_type": "node", "osm_id": 6415814289, "name": "nan", "full_name": "source data.gov.au:Hobsons Bay City Council circumference 0.45 natural tree species Eucalyptus cladocalyx", "lat": -37.881043, "lng": 144.796086 }, "geometry": { "type": "Point", "coordinates": [ 144.796086, -37.881043 ] } },
{ "type": "Feature", "properties": { "osm_type": "node", "osm_id": 6415808303, "name": "nan", "full_name": "source data.gov.au:Hobsons Bay City Council circumference 0.6 natural tree species Eucalyptus cladocalyx", "lat": -37.880576, "lng": 144.795988 }, "geometry": { "type": "Point", "coordinates": [ 144.795988, -37.880576 ] } },
{ "type": "Feature", "properties": { "osm_type": "node", "osm_id": 6415812631, "name": "nan", "full_name": "source data.gov.au:Hobsons Bay City Council circumference 0.6 natural tree species Eucalyptus cladocalyx", "lat": -37.880799, "lng": 144.794411 }, "geometry": { "type": "Point", "coordinates": [ 144.794411, -37.880799 ] } },
{ "type": "Feature", "properties": { "osm_type": "node", "osm_id": 6415805454, "name": "nan", "full_name": "source data.gov.au:Hobsons Bay City Council circumference 0.6 natural tree species Eucalyptus cladocalyx", "lat": -37.880217, "lng": 144.794921 }, "geometry": { "type": "Point", "coordinates": [ 144.794921, -37.880217 ] } },
{ "type": "Feature", "properties": { "osm_type": "node", "osm_id": 6415814435, "name": "nan", "full_name": "source data.gov.au:Hobsons Bay City Council circumference 0.6 natural tree species Eucalyptus cladocalyx", "lat": -37.882041, "lng": 144.794867 }, "geometry": { "type": "Point", "coordinates": [ 144.794867, -37.882041 ] } }
]
}
