{
"type": "FeatureCollection",
"crs": { "type": "name", "properties": { "name": "urn:ogc:def:crs:OGC:1.3:CRS84" } },
"features": [
{ "type": "Feature", "properties": { "osm_type": "node", "osm_id": 6447193927, "name": "Mildura Grand", "full_name": "Mildura Grand tourism hotel brand Quality Inn", "lat": -34.1830237, "lng": 142.1634148 }, "geometry": { "type": "Point", "coordinates": [ 142.1634148, -34.1830237 ] } },
{ "type": "Feature", "properties": { "osm_type": "way", "osm_id": 687712378, "name": "The Grand Hotel", "full_name": "The Grand Hotel building", "lat": -34.183350849456517, "lng": 142.16340353701079 }, "geometry": { "type": "Polygon", "coordinates": [ [ [ 142.163330699999989, -34.1828715 ], [ 142.162867799999987, -34.1832518 ], [ 142.162959699999988, -34.1833254 ], [ 142.1629427, -34.1833395 ], [ 142.1630585, -34.1834344 ], [ 142.163103, -34.1833975 ], [ 142.1630834, -34.1833797 ], [ 142.1630987, -34.1833667 ], [ 142.1636851, -34.1838581 ], [ 142.1639224, -34.1836593 ], [ 142.163884200000012, -34.1836291 ], [ 142.163845, -34.1836598 ], [ 142.1636963, -34.1835375 ], [ 142.163769800000011, -34.1834773 ], [ 142.1637541, -34.1834648 ], [ 142.1637974, -34.1834262 ], [ 142.1637676, -34.1834021 ], [ 142.1637723, -34.183398 ], [ 142.163571600000012, -34.1832369 ], [ 142.163607399999989, -34.1832074 ], [ 142.1634953, -34.1831166 ], [ 142.163565299999988, -34.1830633 ], [ 142.163330699999989, -34.1828715 ] ] ] } },
{ "type": "Feature", "properties": { "osm_type": "node", "osm_id": 10795915875, "name": "sip. cocktail bar & eatery", "full_name": "sip. cocktail bar & eatery amenity bar opening_hours Mo-Su 16:00-00:00 phone +61 3 5021 0680", "lat": -34.1842729, "lng": 142.161988 }, "geometry": { "type": "Point", "coordinates": [ 142.161988, -34.1842729 ] } },
{ "type": "Feature", "properties": { "osm_type": "node", "osm_id": 2932745267, "name": "Midura Brewery Pub", "full_name": "Midura Brewery Pub amenity restaurant email enquiries@mildurabrewery.com.au brewery microbrewery takeaway wheelchair", "lat": -34.1833548, "lng": 142.1627989 }, "geometry": { "type": "Point", "coordinates": [ 142.162798900000013, -34.1833548 ] } },
{ "type": "Feature", "properties": { "osm_type": "node", "osm_id": 2932745281, "name": "The Office Wine Bar & Lounge", "full_name": "The Office Wine Bar & Lounge amenity bar", "lat": -34.1837669, "lng": 142.1616848 }, "geometry": { "type": "Point", "coordinates": [ 142.161684799999989, -34.1837669 ] } },
{ "type": "Feature", "properties": { "osm_type": "node", "osm_id": 6457257750, "name": "The Palace Collection", "full_name": "The Palace Collection shop antiques", "lat": -34.1840152, "lng": 142.1619954 }, "geometry": { "type": "Point", "coordinates": [ 142.1619954, -34.1840152 ] } },
{ "type": "Feature", "properties": { "osm_type": "node", "osm_id": 6471387906, "name": "Royal Copenhagen", "full_name": "Royal Copenhagen amenity ice_cream email info@rcicecream.com.au phone +61 2 9997 2296", "lat": -34.1844051, "lng": 142.162127 }, "geometry": { "type": "Point", "coordinates": [ 142.162127, -34.1844051 ] } },
{ "type": "Feature", "properties": { "osm_type": "node", "osm_id": 2932745275, "name": "The Bistro Mildura", "full_name": "The Bistro Mildura amenity restaurant", "lat": -34.1830736, "lng": 142.1631517 }, "geometry": { "type": "Point", "coordinates": [ 142.163151699999986, -34.1830736 ] } },
{ "type": "Feature", "properties": { "osm_type": "node", "osm_id": 6592747626, "name": "Mildura Railway Station", "full_name": "Mildura Railway Station amenity bus_station opening_hours Mo-Fr 06:25-22:00, Sa 06:00-12:00; Su 08:45-13:30,18:00-22:00 operator V/Line bus network PTV - Regional Buses public_transport station", "lat": -34.1820696, "lng": 142.1632065 }, "geometry": { "type": "Point", "coordinates": [ 142.1632065, -34.1820696 ] } },
{ "type": "Feature", "properties": { "osm_type": "node", "osm_id": 2932745272, "name": "Mildura Mall Kebab House", "full_name": "Mildura Mall Kebab House amenity fast_food cuisine kebab", "lat": -34.1839039, "lng": 142.1621151 }, "geometry": { "type": "Point", "coordinates": [ 142.1621151, -34.1839039 ] } }
]
}
