{
"type": "FeatureCollection",
"crs": { "type": "name", "properties": { "name": "urn:ogc:def:crs:OGC:1.3:CRS84" } },
"features": [
{ "type": "Feature", "properties": { "osm_type": "way", "osm_id": 1011672045, "name": "Long Island", "full_name": "Long Island landuse forest place island leaf_type broadleaved", "lat": -37.82807965817063, "lng": 144.9801965548333 }, "geometry": { "type": "Polygon", "coordinates": [ [ [ 144.9799376, -37.8276894 ], [ 144.979860800000012, -37.8277749 ], [ 144.979794700000014, -37.8277857 ], [ 144.979748300000011, -37.8278145 ], [ 144.979706, -37.8278921 ], [ 144.9797333, -37.8279548 ], [ 144.9797773, -37.828025 ], [ 144.9798707, -37.8280632 ], [ 144.979939300000012, -37.8282066 ], [ 144.9799451, -37.8282177 ], [ 144.9800554, -37.8282291 ], [ 144.980156099999988, -37.8283125 ], [ 144.98029360000001, -37.8282817 ], [ 144.980427600000013, -37.8283661 ], [ 144.980566, -37.8284031 ], [ 144.9806812, -37.8283079 ], [ 144.9807889, -37.8281939 ], [ 144.98093080000001, -37.8281758 ], [ 144.98086570000001, -37.8280907 ], [ 144.9807927, -37.8280948 ], [ 144.9806762, -37.8281656 ], [ 144.9805154, -37.8281859 ], [ 144.9804196, -37.8281509 ], [ 144.9803106, -37.828093 ], [ 144.9802989, -37.8280128 ], [ 144.9802786, -37.8279388 ], [ 144.98014520000001, -37.8279486 ], [ 144.980111, -37.8279198 ], [ 144.98006860000001, -37.8277463 ], [ 144.979995, -37.8276864 ], [ 144.9799376, -37.8276894 ] ] ] } },
{ "type": "Feature", "properties": { "osm_type": "node", "osm_id": 2941588909, "name": "nan", "full_name": "natural tree", "lat": -37.8265233, "lng": 144.9819571 }, "geometry": { "type": "Point", "coordinates": [ 144.981957099999988, -37.8265233 ] } },
{ "type": "Feature", "properties": { "osm_type": "node", "osm_id": 2941588096, "name": "nan", "full_name": "natural tree", "lat": -37.825894, "lng": 144.9812999 }, "geometry": { "type": "Point", "coordinates": [ 144.98129990000001, -37.825894 ] } },
{ "type": "Feature", "properties": { "osm_type": "node", "osm_id": 8821368063, "name": "nan", "full_name": "natural tree", "lat": -37.8262228, "lng": 144.9794505 }, "geometry": { "type": "Point", "coordinates": [ 144.979450500000013, -37.8262228 ] } },
{ "type": "Feature", "properties": { "osm_type": "node", "osm_id": 8821368062, "name": "nan", "full_name": "natural tree", "lat": -37.8261528, "lng": 144.9793513 }, "geometry": { "type": "Point", "coordinates": [ 144.9793513, -37.8261528 ] } },
{ "type": "Feature", "properties": { "osm_type": "node", "osm_id": 8821368061, "name": "nan", "full_name": "natural tree", "lat": -37.82591, "lng": 144.9790853 }, "geometry": { "type": "Point", "coordinates": [ 144.9790853, -37.82591 ] } },
{ "type": "Feature", "properties": { "osm_type": "node", "osm_id": 8821368060, "name": "nan", "full_name": "natural tree", "lat": -37.8258302, "lng": 144.9789844 }, "geometry": { "type": "Point", "coordinates": [ 144.9789844, -37.8258302 ] } },
{ "type": "Feature", "properties": { "osm_type": "node", "osm_id": 8821368059, "name": "nan", "full_name": "natural tree", "lat": -37.8257547, "lng": 144.978926 }, "geometry": { "type": "Point", "coordinates": [ 144.978926, -37.8257547 ] } },
{ "type": "Feature", "properties": { "osm_type": "node", "osm_id": 2941588912, "name": "nan", "full_name": "natural tree", "lat": -37.8266461, "lng": 144.982228 }, "geometry": { "type": "Point", "coordinates": [ 144.982228, -37.8266461 ] } },
{ "type": "Feature", "properties": { "osm_type": "node", "osm_id": 2941588910, "name": "nan", "full_name": "natural tree", "lat": -37.8268856, "lng": 144.9830702 }, "geometry": { "type": "Point", "coordinates": [ 144.983070199999986, -37.8268856 ] } }
]
}
