{
"type": "FeatureCollection",
"crs": { "type": "name", "properties": { "name": "urn:ogc:def:crs:OGC:1.3:CRS84" } },
"features": [
{ "type": "Feature", "properties": { "osm_type": "node", "osm_id": 6054082477, "name": "Tabet's Bakery", "full_name": "Tabet's Bakery phone +61 423 840 066 shop bakery description bakery & cafe", "lat": -37.7442524, "lng": 144.9659203 }, "geometry": { "type": "Point", "coordinates": [ 144.9659203, -37.7442524 ] } },
{ "type": "Feature", "properties": { "osm_type": "node", "osm_id": 3239431951, "name": "Crystal Bakery", "full_name": "Crystal Bakery shop bakery", "lat": -37.7433576, "lng": 144.9660817 }, "geometry": { "type": "Point", "coordinates": [ 144.966081699999989, -37.7433576 ] } },
{ "type": "Feature", "properties": { "osm_type": "node", "osm_id": 9619937334, "name": "nan", "full_name": "operator Victorian Rail Track railway radio man_made antenna", "lat": -37.7430839, "lng": 144.9629739 }, "geometry": { "type": "Point", "coordinates": [ 144.9629739, -37.7430839 ] } },
{ "type": "Feature", "properties": { "osm_type": "node", "osm_id": 6098958909, "name": "Yiannis Pantheon Cakes", "full_name": "Yiannis Pantheon Cakes amenity cafe", "lat": -37.7434575, "lng": 144.9660643 }, "geometry": { "type": "Point", "coordinates": [ 144.9660643, -37.7434575 ] } },
{ "type": "Feature", "properties": { "osm_type": "node", "osm_id": 4350602135, "name": "Vinnie's Fruit", "full_name": "Vinnie's Fruit shop greengrocer", "lat": -37.7445695, "lng": 144.9658897 }, "geometry": { "type": "Point", "coordinates": [ 144.9658897, -37.7445695 ] } },
{ "type": "Feature", "properties": { "osm_type": "node", "osm_id": 10050029031, "name": "Dat Thanh Bakery", "full_name": "Dat Thanh Bakery opening_hours Mo-Su 08:00-17:00 phone +61 3 9354 1054 shop bakery", "lat": -37.7443825, "lng": 144.965901 }, "geometry": { "type": "Point", "coordinates": [ 144.965901, -37.7443825 ] } },
{ "type": "Feature", "properties": { "osm_type": "node", "osm_id": 6357746966, "name": "Trivelli Pasticerria", "full_name": "Trivelli Pasticerria phone +61 3 9354 5165 shop pastry description Italian cake shop", "lat": -37.7448268, "lng": 144.9658656 }, "geometry": { "type": "Point", "coordinates": [ 144.9658656, -37.7448268 ] } },
{ "type": "Feature", "properties": { "osm_type": "node", "osm_id": 4213708662, "name": "Bakers Delight", "full_name": "Bakers Delight brand Bakers Delight shop bakery", "lat": -37.7430388, "lng": 144.9661177 }, "geometry": { "type": "Point", "coordinates": [ 144.966117700000012, -37.7430388 ] } },
{ "type": "Feature", "properties": { "osm_type": "node", "osm_id": 3245691859, "name": "Another World Computer Centre", "full_name": "Another World Computer Centre phone +61 3 9354 9871 shop computer", "lat": -37.7433938, "lng": 144.9660755 }, "geometry": { "type": "Point", "coordinates": [ 144.966075499999988, -37.7433938 ] } },
{ "type": "Feature", "properties": { "osm_type": "node", "osm_id": 11481500409, "name": "Gift shop Shisha- Antique-Houseware", "full_name": "Gift shop Shisha- Antique-Houseware shop houseware", "lat": -37.741725, "lng": 144.9653577 }, "geometry": { "type": "Point", "coordinates": [ 144.9653577, -37.741725 ] } }
]
}
