{
"type": "FeatureCollection",
"crs": { "type": "name", "properties": { "name": "urn:ogc:def:crs:OGC:1.3:CRS84" } },
"features": [
{ "type": "Feature", "properties": { "osm_type": "node", "osm_id": 2932745283, "name": "doms", "full_name": "doms amenity nightclub cuisine burger", "lat": -34.1835509, "lng": 142.1625491 }, "geometry": { "type": "Point", "coordinates": [ 142.1625491, -34.1835509 ] } },
{ "type": "Feature", "properties": { "osm_type": "node", "osm_id": 2932745277, "name": "Spanish Bar and Grill", "full_name": "Spanish Bar and Grill amenity restaurant", "lat": -34.1830044, "lng": 142.1632326 }, "geometry": { "type": "Point", "coordinates": [ 142.163232599999986, -34.1830044 ] } },
{ "type": "Feature", "properties": { "osm_type": "node", "osm_id": 2932745278, "name": "Stefano's", "full_name": "Stefano's amenity restaurant", "lat": -34.1831373, "lng": 142.1630644 }, "geometry": { "type": "Point", "coordinates": [ 142.1630644, -34.1831373 ] } },
{ "type": "Feature", "properties": { "osm_type": "node", "osm_id": 5238941462, "name": "The Province", "full_name": "The Province amenity restaurant cuisine italian phone +61 3 5021 5550 operator Matt de Angelo", "lat": -34.1834052, "lng": 142.162175 }, "geometry": { "type": "Point", "coordinates": [ 142.162175, -34.1834052 ] } },
{ "type": "Feature", "properties": { "osm_type": "node", "osm_id": 10795915875, "name": "sip. cocktail bar & eatery", "full_name": "sip. cocktail bar & eatery amenity bar opening_hours Mo-Su 16:00-00:00 phone +61 3 5021 0680", "lat": -34.1842729, "lng": 142.161988 }, "geometry": { "type": "Point", "coordinates": [ 142.161988, -34.1842729 ] } },
{ "type": "Feature", "properties": { "osm_type": "node", "osm_id": 2932745271, "name": "Rendezvous", "full_name": "Rendezvous amenity restaurant cuisine french", "lat": -34.1837567, "lng": 142.1623117 }, "geometry": { "type": "Point", "coordinates": [ 142.1623117, -34.1837567 ] } },
{ "type": "Feature", "properties": { "osm_type": "node", "osm_id": 2932745281, "name": "The Office Wine Bar & Lounge", "full_name": "The Office Wine Bar & Lounge amenity bar", "lat": -34.1837669, "lng": 142.1616848 }, "geometry": { "type": "Point", "coordinates": [ 142.161684799999989, -34.1837669 ] } },
{ "type": "Feature", "properties": { "osm_type": "node", "osm_id": 6457257742, "name": "Stefano's Cafe", "full_name": "Stefano's Cafe amenity cafe opening_hours Mo-Fr 07:00-15:00; Sa 08:00-15:00; Su 08:00-12:00", "lat": -34.1841018, "lng": 142.1633317 }, "geometry": { "type": "Point", "coordinates": [ 142.163331699999986, -34.1841018 ] } },
{ "type": "Feature", "properties": { "osm_type": "node", "osm_id": 2932745267, "name": "Midura Brewery Pub", "full_name": "Midura Brewery Pub amenity restaurant email enquiries@mildurabrewery.com.au brewery microbrewery takeaway wheelchair", "lat": -34.1833548, "lng": 142.1627989 }, "geometry": { "type": "Point", "coordinates": [ 142.162798900000013, -34.1833548 ] } },
{ "type": "Feature", "properties": { "osm_type": "node", "osm_id": 6457257740, "name": "Duncan's Bottle Shop", "full_name": "Duncan's Bottle Shop shop alcohol", "lat": -34.1837443, "lng": 142.1637874 }, "geometry": { "type": "Point", "coordinates": [ 142.1637874, -34.1837443 ] } }
]
}
