{
"type": "FeatureCollection",
"crs": { "type": "name", "properties": { "name": "urn:ogc:def:crs:OGC:1.3:CRS84" } },
"features": [
{ "type": "Feature", "properties": { "osm_type": "node", "osm_id": 10684997147, "name": "EzyMart", "full_name": "EzyMart brand EzyMart shop convenience", "lat": -37.8173208, "lng": 144.9526826 }, "geometry": { "type": "Point", "coordinates": [ 144.9526826, -37.8173208 ] } },
{ "type": "Feature", "properties": { "osm_type": "way", "osm_id": 478465683, "name": "Hungry Jack's", "full_name": "Hungry Jack's level 2 amenity fast_food brand Hungry Jack's layer -1 cuisine burger takeaway building indoor room location surface room restaurant", "lat": -37.819008586470872, "lng": 144.95337275541183 }, "geometry": { "type": "Polygon", "coordinates": [ [ [ 144.953212, -37.8189455 ], [ 144.953301399999987, -37.8189226 ], [ 144.9533111, -37.818906 ], [ 144.9533437, -37.8188978 ], [ 144.9533698, -37.818891 ], [ 144.9534026, -37.8188826 ], [ 144.953447899999986, -37.8188716 ], [ 144.95353320000001, -37.8190803 ], [ 144.9532921, -37.819142 ], [ 144.953212, -37.8189455 ] ] ] } },
{ "type": "Feature", "properties": { "osm_type": "node", "osm_id": 2173278063, "name": "7-Eleven", "full_name": "7-Eleven level 0 brand 7-Eleven shop convenience", "lat": -37.8165389, "lng": 144.9527398 }, "geometry": { "type": "Point", "coordinates": [ 144.952739799999989, -37.8165389 ] } },
{ "type": "Feature", "properties": { "osm_type": "node", "osm_id": 3012090065, "name": "Tom's Grocery Plus", "full_name": "Tom's Grocery Plus shop convenience phone +61 3 9642 2880", "lat": -37.8162043, "lng": 144.9530358 }, "geometry": { "type": "Point", "coordinates": [ 144.9530358, -37.8162043 ] } },
{ "type": "Feature", "properties": { "osm_type": "node", "osm_id": 3012129850, "name": "Fruity Betty's", "full_name": "Fruity Betty's level 0 amenity fast_food cuisine crepe;sausage", "lat": -37.8173542, "lng": 144.9529034 }, "geometry": { "type": "Point", "coordinates": [ 144.9529034, -37.8173542 ] } },
{ "type": "Feature", "properties": { "osm_type": "node", "osm_id": 3012129851, "name": "In a Rush", "full_name": "In a Rush level 0 amenity cafe cuisine coffee_shop opening_hours Mo-Su 08:00-20:00", "lat": -37.817511, "lng": 144.9529383 }, "geometry": { "type": "Point", "coordinates": [ 144.9529383, -37.817511 ] } },
{ "type": "Feature", "properties": { "osm_type": "node", "osm_id": 660023614, "name": "Hungry Jack's", "full_name": "Hungry Jack's level 0 amenity fast_food brand Hungry Jack's cuisine burger takeaway", "lat": -37.8168617, "lng": 144.9528793 }, "geometry": { "type": "Point", "coordinates": [ 144.9528793, -37.8168617 ] } },
{ "type": "Feature", "properties": { "osm_type": "node", "osm_id": 10778867610, "name": "DFO Spencer Street Food Court", "full_name": "DFO Spencer Street Food Court level 1 amenity food_court layer 1", "lat": -37.8169917, "lng": 144.9527 }, "geometry": { "type": "Point", "coordinates": [ 144.9527, -37.8169917 ] } },
{ "type": "Feature", "properties": { "osm_type": "node", "osm_id": 1420650994, "name": "Starbucks", "full_name": "Starbucks level 1 amenity cafe brand Starbucks official_name Starbucks Coffee cuisine coffee_shop takeaway opening_hours Mo-We 06:30-19:00; Th-Fr 06:30-20:00; Sa 07:30-20:00; Su 07:30-19:00 phone +61 3 9642 4701", "lat": -37.8171266, "lng": 144.9525788 }, "geometry": { "type": "Point", "coordinates": [ 144.9525788, -37.8171266 ] } },
{ "type": "Feature", "properties": { "osm_type": "node", "osm_id": 3259282308, "name": "Grain 717", "full_name": "Grain 717 amenity cafe layer 1 cuisine coffee_shop smoking outside", "lat": -37.8182232, "lng": 144.9501342 }, "geometry": { "type": "Point", "coordinates": [ 144.9501342, -37.8182232 ] } }
]
}
