{
"type": "FeatureCollection",
"crs": { "type": "name", "properties": { "name": "urn:ogc:def:crs:OGC:1.3:CRS84" } },
"features": [
{ "type": "Feature", "properties": { "osm_type": "node", "osm_id": 4265464789, "name": "Beer, Wine and Calzone", "full_name": "Beer, Wine and Calzone amenity bar food", "lat": -37.8111644, "lng": 144.9563955 }, "geometry": { "type": "Point", "coordinates": [ 144.956395500000013, -37.8111644 ] } },
{ "type": "Feature", "properties": { "osm_type": "node", "osm_id": 635543926, "name": "La Stradda Cafe", "full_name": "La Stradda Cafe amenity cafe", "lat": -37.8115213, "lng": 144.9565801 }, "geometry": { "type": "Point", "coordinates": [ 144.9565801, -37.8115213 ] } },
{ "type": "Feature", "properties": { "osm_type": "node", "osm_id": 8105845040, "name": "Chemist Warehouse", "full_name": "Chemist Warehouse amenity pharmacy operator Shirley Tsui and Thi Lan Chi Anna Nguyen phone +61 3 9113 4446 wheelchair opening_hours Mo-Fr 07:30-21:00; Sa,Su 09:00-18:00; PH 10:00-15:00 branch Melbourne William Street brand Chemist Warehouse alt_name Chemist Warehouse William Street; William Street Chemist Warehouse; Chemist Warehouse Melbourne William Street; William Street Melbourne Chemist Warehouse dispensing healthcare pharmacy", "lat": -37.8115594, "lng": 144.9565407 }, "geometry": { "type": "Point", "coordinates": [ 144.9565407, -37.8115594 ] } },
{ "type": "Feature", "properties": { "osm_type": "node", "osm_id": 2274578795, "name": "Melbourne Party Emporium", "full_name": "Melbourne Party Emporium phone +61 3 9600 9046 shop party fax +61 3 9326 6307", "lat": -37.8084103, "lng": 144.958113 }, "geometry": { "type": "Point", "coordinates": [ 144.958113, -37.8084103 ] } },
{ "type": "Feature", "properties": { "osm_type": "node", "osm_id": 4675693394, "name": "Europa Melbourne", "full_name": "Europa Melbourne tourism hostel", "lat": -37.8114121, "lng": 144.9593686 }, "geometry": { "type": "Point", "coordinates": [ 144.9593686, -37.8114121 ] } },
{ "type": "Feature", "properties": { "osm_type": "node", "osm_id": 2274615442, "name": "Island Wave", "full_name": "Island Wave tourism artwork", "lat": -37.8092264, "lng": 144.9578455 }, "geometry": { "type": "Point", "coordinates": [ 144.9578455, -37.8092264 ] } },
{ "type": "Feature", "properties": { "osm_type": "way", "osm_id": 62105905, "name": "Melbourne Terrace Apartments", "full_name": "Melbourne Terrace Apartments building layer 1 source nearmap", "lat": -37.80895991043608, "lng": 144.95849975316472 }, "geometry": { "type": "Polygon", "coordinates": [ [ [ 144.958909, -37.8089622 ], [ 144.958834, -37.8089838 ], [ 144.9588137, -37.8089468 ], [ 144.9583269, -37.8090856 ], [ 144.958348300000011, -37.8091323 ], [ 144.958214199999986, -37.8091715 ], [ 144.958119, -37.8089627 ], [ 144.9583537, -37.8088981 ], [ 144.9583577, -37.8089119 ], [ 144.9588378, -37.8087763 ], [ 144.958909, -37.8089622 ] ] ] } },
{ "type": "Feature", "properties": { "osm_type": "node", "osm_id": 3846006629, "name": "Di Bella Coffee", "full_name": "Di Bella Coffee amenity cafe", "lat": -37.8101565, "lng": 144.9571385 }, "geometry": { "type": "Point", "coordinates": [ 144.957138500000013, -37.8101565 ] } },
{ "type": "Feature", "properties": { "osm_type": "node", "osm_id": 2530153191, "name": "Cafenatics", "full_name": "Cafenatics amenity cafe cuisine coffee_shop", "lat": -37.8113734, "lng": 144.9572301 }, "geometry": { "type": "Point", "coordinates": [ 144.9572301, -37.8113734 ] } },
{ "type": "Feature", "properties": { "osm_type": "node", "osm_id": 11411909938, "name": "Sam Spade", "full_name": "Sam Spade amenity cafe cuisine coffee_shop takeaway", "lat": -37.8109952, "lng": 144.959629 }, "geometry": { "type": "Point", "coordinates": [ 144.959629, -37.8109952 ] } }
]
}
