{
"type": "FeatureCollection",
"crs": { "type": "name", "properties": { "name": "urn:ogc:def:crs:OGC:1.3:CRS84" } },
"features": [
{ "type": "Feature", "properties": { "osm_type": "node", "osm_id": 1563378344, "name": "The Gardens Shop Lakeside", "full_name": "The Gardens Shop Lakeside shop convenience", "lat": -37.8293666, "lng": 144.9827371 }, "geometry": { "type": "Point", "coordinates": [ 144.9827371, -37.8293666 ] } },
{ "type": "Feature", "properties": { "osm_type": "node", "osm_id": 6846372043, "name": "nan", "full_name": "leisure picnic_table", "lat": -37.8275019, "lng": 144.9818066 }, "geometry": { "type": "Point", "coordinates": [ 144.9818066, -37.8275019 ] } },
{ "type": "Feature", "properties": { "osm_type": "node", "osm_id": 6846372045, "name": "nan", "full_name": "leisure picnic_table", "lat": -37.8277095, "lng": 144.9825479 }, "geometry": { "type": "Point", "coordinates": [ 144.982547899999986, -37.8277095 ] } },
{ "type": "Feature", "properties": { "osm_type": "node", "osm_id": 6846372036, "name": "nan", "full_name": "leisure picnic_table", "lat": -37.827819, "lng": 144.9831327 }, "geometry": { "type": "Point", "coordinates": [ 144.9831327, -37.827819 ] } },
{ "type": "Feature", "properties": { "osm_type": "node", "osm_id": 5346825747, "name": "nan", "full_name": "amenity drinking_water", "lat": -37.8275634, "lng": 144.9819289 }, "geometry": { "type": "Point", "coordinates": [ 144.981928900000014, -37.8275634 ] } },
{ "type": "Feature", "properties": { "osm_type": "node", "osm_id": 1563378347, "name": "The Terrace", "full_name": "The Terrace amenity cafe", "lat": -37.8293863, "lng": 144.9826001 }, "geometry": { "type": "Point", "coordinates": [ 144.982600100000013, -37.8293863 ] } },
{ "type": "Feature", "properties": { "osm_type": "node", "osm_id": 6846372041, "name": "nan", "full_name": "amenity bbq", "lat": -37.8276745, "lng": 144.9824133 }, "geometry": { "type": "Point", "coordinates": [ 144.9824133, -37.8276745 ] } },
{ "type": "Feature", "properties": { "osm_type": "node", "osm_id": 6846372044, "name": "nan", "full_name": "amenity bbq", "lat": -37.827542, "lng": 144.9819374 }, "geometry": { "type": "Point", "coordinates": [ 144.9819374, -37.827542 ] } },
{ "type": "Feature", "properties": { "osm_type": "node", "osm_id": 6846372038, "name": "nan", "full_name": "amenity bbq", "lat": -37.8278556, "lng": 144.9833845 }, "geometry": { "type": "Point", "coordinates": [ 144.9833845, -37.8278556 ] } },
{ "type": "Feature", "properties": { "osm_type": "node", "osm_id": 6846372039, "name": "nan", "full_name": "amenity bbq", "lat": -37.827781, "lng": 144.9829526 }, "geometry": { "type": "Point", "coordinates": [ 144.9829526, -37.827781 ] } }
]
}
