{
"type": "FeatureCollection",
"crs": { "type": "name", "properties": { "name": "urn:ogc:def:crs:OGC:1.3:CRS84" } },
"features": [
{ "type": "Feature", "properties": { "osm_type": "node", "osm_id": 851777867, "name": "Sheer Urbane Hair", "full_name": "Sheer Urbane Hair shop hairdresser", "lat": -36.7160499, "lng": 142.1973725 }, "geometry": { "type": "Point", "coordinates": [ 142.1973725, -36.7160499 ] } },
{ "type": "Feature", "properties": { "osm_type": "node", "osm_id": 851767995, "name": "Horsham Regional Art Gallery", "full_name": "Horsham Regional Art Gallery amenity arts_centre opening_hours Tu-Fr 10:00-17:00; Sa-Su 13:00-16:30 phone +61 3 5362 2888", "lat": -36.7164588, "lng": 142.1984302 }, "geometry": { "type": "Point", "coordinates": [ 142.1984302, -36.7164588 ] } },
{ "type": "Feature", "properties": { "osm_type": "node", "osm_id": 1391634296, "name": "Horsham Regional Art Gallery", "full_name": "Horsham Regional Art Gallery amenity arts_centre", "lat": -36.714424, "lng": 142.201779 }, "geometry": { "type": "Point", "coordinates": [ 142.201779, -36.714424 ] } },
{ "type": "Feature", "properties": { "osm_type": "node", "osm_id": 4455850690, "name": "Chickpea", "full_name": "Chickpea amenity cafe", "lat": -36.7153148, "lng": 142.1992093 }, "geometry": { "type": "Point", "coordinates": [ 142.1992093, -36.7153148 ] } },
{ "type": "Feature", "properties": { "osm_type": "node", "osm_id": 1391641899, "name": "Fig Tree Caffé", "full_name": "Fig Tree Caffé amenity cafe", "lat": -36.714708, "lng": 142.199874 }, "geometry": { "type": "Point", "coordinates": [ 142.199874, -36.714708 ] } },
{ "type": "Feature", "properties": { "osm_type": "node", "osm_id": 851801743, "name": "Exchange Hotel", "full_name": "Exchange Hotel amenity pub", "lat": -36.715768, "lng": 142.199307 }, "geometry": { "type": "Point", "coordinates": [ 142.199307, -36.715768 ] } },
{ "type": "Feature", "properties": { "osm_type": "node", "osm_id": 1391644746, "name": "Trends on Firebrace", "full_name": "Trends on Firebrace shop shoes", "lat": -36.715017, "lng": 142.1999827 }, "geometry": { "type": "Point", "coordinates": [ 142.1999827, -36.715017 ] } },
{ "type": "Feature", "properties": { "osm_type": "node", "osm_id": 1391629131, "name": "Horsham House", "full_name": "Horsham House tourism guest_house", "lat": -36.714435, "lng": 142.200642 }, "geometry": { "type": "Point", "coordinates": [ 142.200642, -36.714435 ] } },
{ "type": "Feature", "properties": { "osm_type": "node", "osm_id": 851756766, "name": "Shelton & Lane", "full_name": "Shelton & Lane shop stationery", "lat": -36.716814, "lng": 142.1991548 }, "geometry": { "type": "Point", "coordinates": [ 142.1991548, -36.716814 ] } },
{ "type": "Feature", "properties": { "osm_type": "node", "osm_id": 1391650494, "name": "Bendigo Bank", "full_name": "Bendigo Bank amenity bank opening_hours Mo-Th 09:30-16:00; Fr 09:30-17:00 brand Bendigo Bank wheelchair", "lat": -36.71488, "lng": 142.199534 }, "geometry": { "type": "Point", "coordinates": [ 142.199534, -36.71488 ] } }
]
}
