{
"type": "FeatureCollection",
"crs": { "type": "name", "properties": { "name": "urn:ogc:def:crs:OGC:1.3:CRS84" } },
"features": [
{ "type": "Feature", "properties": { "osm_type": "node", "osm_id": 4976357657, "name": "Lisa’s Studio", "full_name": "Lisa’s Studio shop hairdresser", "lat": -37.8136001, "lng": 144.9664981 }, "geometry": { "type": "Point", "coordinates": [ 144.9664981, -37.8136001 ] } },
{ "type": "Feature", "properties": { "osm_type": "node", "osm_id": 6167265877, "name": "nan", "full_name": "shop florist", "lat": -37.8146665, "lng": 144.9662889 }, "geometry": { "type": "Point", "coordinates": [ 144.9662889, -37.8146665 ] } },
{ "type": "Feature", "properties": { "osm_type": "node", "osm_id": 10048418851, "name": "Paint N' Powder", "full_name": "Paint N' Powder wheelchair shop perfumery level 0", "lat": -37.8148072, "lng": 144.964175 }, "geometry": { "type": "Point", "coordinates": [ 144.964175, -37.8148072 ] } },
{ "type": "Feature", "properties": { "osm_type": "node", "osm_id": 5549596060, "name": "Best Cuts", "full_name": "Best Cuts shop hairdresser", "lat": -37.8131635, "lng": 144.9623993 }, "geometry": { "type": "Point", "coordinates": [ 144.962399299999987, -37.8131635 ] } },
{ "type": "Feature", "properties": { "osm_type": "node", "osm_id": 10048415137, "name": "Essensorie", "full_name": "Essensorie shop perfumery level 0", "lat": -37.8156136, "lng": 144.9646521 }, "geometry": { "type": "Point", "coordinates": [ 144.9646521, -37.8156136 ] } },
{ "type": "Feature", "properties": { "osm_type": "node", "osm_id": 4976357655, "name": "Honey Blonde", "full_name": "Honey Blonde shop hairdresser", "lat": -37.8138883, "lng": 144.9665472 }, "geometry": { "type": "Point", "coordinates": [ 144.9665472, -37.8138883 ] } },
{ "type": "Feature", "properties": { "osm_type": "node", "osm_id": 6357531487, "name": "Spa Nails Arcade", "full_name": "Spa Nails Arcade shop beauty beauty nails", "lat": -37.8139454, "lng": 144.9667134 }, "geometry": { "type": "Point", "coordinates": [ 144.9667134, -37.8139454 ] } },
{ "type": "Feature", "properties": { "osm_type": "node", "osm_id": 10048418847, "name": "Georgetti's", "full_name": "Georgetti's shop fashion_accessories level 0", "lat": -37.8152384, "lng": 144.964261 }, "geometry": { "type": "Point", "coordinates": [ 144.964261, -37.8152384 ] } },
{ "type": "Feature", "properties": { "osm_type": "node", "osm_id": 10048415124, "name": "Gewurhaus", "full_name": "Gewurhaus shop spices level 0", "lat": -37.8158224, "lng": 144.9646211 }, "geometry": { "type": "Point", "coordinates": [ 144.964621099999988, -37.8158224 ] } },
{ "type": "Feature", "properties": { "osm_type": "node", "osm_id": 4269477966, "name": "Wittner", "full_name": "Wittner shop shoes", "lat": -37.8159005, "lng": 144.9646338 }, "geometry": { "type": "Point", "coordinates": [ 144.9646338, -37.8159005 ] } }
]
}
