{
"type": "FeatureCollection",
"crs": { "type": "name", "properties": { "name": "urn:ogc:def:crs:OGC:1.3:CRS84" } },
"features": [
{ "type": "Feature", "properties": { "osm_type": "way", "osm_id": 49977799, "name": "Geelong Botanic Gardens", "full_name": "Geelong Botanic Gardens leisure garden", "lat": -38.15007999074362, "lng": 144.37753293594159 }, "geometry": { "type": "Polygon", "coordinates": [ [ [ 144.3763367, -38.1488454 ], [ 144.3764735, -38.1488652 ], [ 144.3770429, -38.1490964 ], [ 144.3772754, -38.1488423 ], [ 144.3773587, -38.1488231 ], [ 144.3774473, -38.1488539 ], [ 144.3775927, -38.1489387 ], [ 144.3780008, -38.1491767 ], [ 144.3780212, -38.1491886 ], [ 144.378334, -38.1493579 ], [ 144.3791268, -38.149787 ], [ 144.3795055, -38.1501295 ], [ 144.3791594, -38.1505134 ], [ 144.379072900000011, -38.1504595 ], [ 144.3787989, -38.1507827 ], [ 144.378689, -38.1507571 ], [ 144.3786025, -38.1509343 ], [ 144.3783664, -38.1508365 ], [ 144.377903, -38.1513459 ], [ 144.376796399999989, -38.1510563 ], [ 144.3762257, -38.1508769 ], [ 144.375932799999987, -38.1503795 ], [ 144.3767043, -38.1495882 ], [ 144.3765185, -38.1494532 ], [ 144.376179900000011, -38.1494068 ], [ 144.3760347, -38.1493345 ], [ 144.3759332, -38.1492269 ], [ 144.3759183, -38.1491032 ], [ 144.3759617, -38.1489929 ], [ 144.37604540000001, -38.1489201 ], [ 144.376202299999989, -38.1488483 ], [ 144.3763367, -38.1488454 ] ] ] } },
{ "type": "Feature", "properties": { "osm_type": "node", "osm_id": 8141405246, "name": "nan", "full_name": "natural tree", "lat": -38.1487919, "lng": 144.3768999 }, "geometry": { "type": "Point", "coordinates": [ 144.376899900000012, -38.1487919 ] } },
{ "type": "Feature", "properties": { "osm_type": "node", "osm_id": 8167277503, "name": "nan", "full_name": "natural tree", "lat": -38.151705, "lng": 144.3797351 }, "geometry": { "type": "Point", "coordinates": [ 144.3797351, -38.151705 ] } },
{ "type": "Feature", "properties": { "osm_type": "node", "osm_id": 8141405257, "name": "nan", "full_name": "natural tree", "lat": -38.1509593, "lng": 144.3806243 }, "geometry": { "type": "Point", "coordinates": [ 144.3806243, -38.1509593 ] } },
{ "type": "Feature", "properties": { "osm_type": "node", "osm_id": 8141405226, "name": "nan", "full_name": "natural tree", "lat": -38.151274, "lng": 144.3805705 }, "geometry": { "type": "Point", "coordinates": [ 144.3805705, -38.151274 ] } },
{ "type": "Feature", "properties": { "osm_type": "node", "osm_id": 8141405253, "name": "nan", "full_name": "natural tree", "lat": -38.1513764, "lng": 144.3776316 }, "geometry": { "type": "Point", "coordinates": [ 144.3776316, -38.1513764 ] } },
{ "type": "Feature", "properties": { "osm_type": "node", "osm_id": 8141405256, "name": "nan", "full_name": "natural tree", "lat": -38.151528, "lng": 144.3780194 }, "geometry": { "type": "Point", "coordinates": [ 144.3780194, -38.151528 ] } },
{ "type": "Feature", "properties": { "osm_type": "node", "osm_id": 8141405252, "name": "nan", "full_name": "natural tree", "lat": -38.1512109, "lng": 144.3804305 }, "geometry": { "type": "Point", "coordinates": [ 144.380430499999989, -38.1512109 ] } },
{ "type": "Feature", "properties": { "osm_type": "node", "osm_id": 8141405258, "name": "nan", "full_name": "natural tree", "lat": -38.1496193, "lng": 144.3804019 }, "geometry": { "type": "Point", "coordinates": [ 144.38040190000001, -38.1496193 ] } },
{ "type": "Feature", "properties": { "osm_type": "node", "osm_id": 8141405259, "name": "nan", "full_name": "natural tree", "lat": -38.1495492, "lng": 144.3805924 }, "geometry": { "type": "Point", "coordinates": [ 144.380592400000012, -38.1495492 ] } }
]
}
