{
"type": "FeatureCollection",
"crs": { "type": "name", "properties": { "name": "urn:ogc:def:crs:OGC:1.3:CRS84" } },
"features": [
{ "type": "Feature", "properties": { "osm_type": "node", "osm_id": 4728998189, "name": "nan", "full_name": "shop vacant", "lat": -37.8127983, "lng": 144.9674931 }, "geometry": { "type": "Point", "coordinates": [ 144.967493100000013, -37.8127983 ] } },
{ "type": "Feature", "properties": { "osm_type": "node", "osm_id": 635698923, "name": "nan", "full_name": "building retail shop vacant", "lat": -37.813374, "lng": 144.966916 }, "geometry": { "type": "Point", "coordinates": [ 144.966916, -37.813374 ] } },
{ "type": "Feature", "properties": { "osm_type": "node", "osm_id": 1027200498, "name": "nan", "full_name": "building retail shop vacant", "lat": -37.812884, "lng": 144.968601 }, "geometry": { "type": "Point", "coordinates": [ 144.968601, -37.812884 ] } },
{ "type": "Feature", "properties": { "osm_type": "node", "osm_id": 704113776, "name": "nan", "full_name": "building retail shop vacant", "lat": -37.8128598, "lng": 144.9685139 }, "geometry": { "type": "Point", "coordinates": [ 144.9685139, -37.8128598 ] } },
{ "type": "Feature", "properties": { "osm_type": "node", "osm_id": 836036540, "name": "Rydges Melbourne", "full_name": "Rydges Melbourne internet_access wlan building retail phone +61 3 9662 0511 wheelchair limited tourism hotel", "lat": -37.811201, "lng": 144.9706806 }, "geometry": { "type": "Point", "coordinates": [ 144.9706806, -37.811201 ] } },
{ "type": "Feature", "properties": { "osm_type": "node", "osm_id": 3367904403, "name": "nan", "full_name": "highway traffic_signals", "lat": -37.8108356, "lng": 144.9674005 }, "geometry": { "type": "Point", "coordinates": [ 144.9674005, -37.8108356 ] } },
{ "type": "Feature", "properties": { "osm_type": "node", "osm_id": 3367904397, "name": "nan", "full_name": "highway traffic_signals", "lat": -37.8120797, "lng": 144.9703483 }, "geometry": { "type": "Point", "coordinates": [ 144.970348300000012, -37.8120797 ] } },
{ "type": "Feature", "properties": { "osm_type": "node", "osm_id": 3367904398, "name": "nan", "full_name": "highway traffic_signals", "lat": -37.8101089, "lng": 144.9698618 }, "geometry": { "type": "Point", "coordinates": [ 144.9698618, -37.8101089 ] } },
{ "type": "Feature", "properties": { "osm_type": "node", "osm_id": 3367904400, "name": "nan", "full_name": "highway traffic_signals", "lat": -37.8106913, "lng": 144.9672264 }, "geometry": { "type": "Point", "coordinates": [ 144.967226399999987, -37.8106913 ] } },
{ "type": "Feature", "properties": { "osm_type": "node", "osm_id": 3367904401, "name": "nan", "full_name": "highway traffic_signals", "lat": -37.8119086, "lng": 144.9705832 }, "geometry": { "type": "Point", "coordinates": [ 144.9705832, -37.8119086 ] } }
]
}
