{
"type": "FeatureCollection",
"crs": { "type": "name", "properties": { "name": "urn:ogc:def:crs:OGC:1.3:CRS84" } },
"features": [
{ "type": "Feature", "properties": { "osm_type": "node", "osm_id": 5227802691, "name": "Ariana Bakery", "full_name": "Ariana Bakery shop bakery", "lat": -37.9877886, "lng": 145.2128821 }, "geometry": { "type": "Point", "coordinates": [ 145.2128821, -37.9877886 ] } },
{ "type": "Feature", "properties": { "osm_type": "node", "osm_id": 5285526938, "name": "The Cheescake Shop", "full_name": "The Cheescake Shop shop bakery", "lat": -37.9895328, "lng": 145.2149035 }, "geometry": { "type": "Point", "coordinates": [ 145.2149035, -37.9895328 ] } },
{ "type": "Feature", "properties": { "osm_type": "node", "osm_id": 5285525009, "name": "Dandy", "full_name": "Dandy shop bakery", "lat": -37.9881911, "lng": 145.2160221 }, "geometry": { "type": "Point", "coordinates": [ 145.2160221, -37.9881911 ] } },
{ "type": "Feature", "properties": { "osm_type": "node", "osm_id": 5285524997, "name": "MKS Spices n Things", "full_name": "MKS Spices n Things shop supermarket", "lat": -37.9892872, "lng": 145.2152267 }, "geometry": { "type": "Point", "coordinates": [ 145.215226699999988, -37.9892872 ] } },
{ "type": "Feature", "properties": { "osm_type": "node", "osm_id": 5217624049, "name": "AB Bakery Dandenong", "full_name": "AB Bakery Dandenong amenity cafe phone +61 3 9794 9500", "lat": -37.9890925, "lng": 145.2140879 }, "geometry": { "type": "Point", "coordinates": [ 145.21408790000001, -37.9890925 ] } },
{ "type": "Feature", "properties": { "osm_type": "node", "osm_id": 5285526973, "name": "Bestway Supermarket", "full_name": "Bestway Supermarket shop supermarket", "lat": -37.9883953, "lng": 145.2148283 }, "geometry": { "type": "Point", "coordinates": [ 145.2148283, -37.9883953 ] } },
{ "type": "Feature", "properties": { "osm_type": "node", "osm_id": 5285526961, "name": "Pizza Hut", "full_name": "Pizza Hut amenity restaurant brand Pizza Hut cuisine pizza", "lat": -37.9892266, "lng": 145.2164875 }, "geometry": { "type": "Point", "coordinates": [ 145.2164875, -37.9892266 ] } },
{ "type": "Feature", "properties": { "osm_type": "node", "osm_id": 4513522407, "name": "Biryani Place", "full_name": "Biryani Place amenity restaurant cuisine indian", "lat": -37.9886474, "lng": 145.2159471 }, "geometry": { "type": "Point", "coordinates": [ 145.2159471, -37.9886474 ] } },
{ "type": "Feature", "properties": { "osm_type": "node", "osm_id": 3404535195, "name": "Domino's", "full_name": "Domino's amenity fast_food brand Domino's cuisine pizza takeaway", "lat": -37.9885906, "lng": 145.2164233 }, "geometry": { "type": "Point", "coordinates": [ 145.2164233, -37.9885906 ] } },
{ "type": "Feature", "properties": { "osm_type": "node", "osm_id": 5227802661, "name": "New Ganesh Selections", "full_name": "New Ganesh Selections shop houseware", "lat": -37.9876278, "lng": 145.2157192 }, "geometry": { "type": "Point", "coordinates": [ 145.2157192, -37.9876278 ] } }
]
}
