{
"type": "FeatureCollection",
"crs": { "type": "name", "properties": { "name": "urn:ogc:def:crs:OGC:1.3:CRS84" } },
"features": [
{ "type": "Feature", "properties": { "osm_type": "node", "osm_id": 2952275446, "name": "nan", "full_name": "amenity shelter", "lat": -37.9472798, "lng": 145.222964 }, "geometry": { "type": "Point", "coordinates": [ 145.222964, -37.9472798 ] } },
{ "type": "Feature", "properties": { "osm_type": "way", "osm_id": 221410022, "name": "nan", "full_name": "natural water", "lat": -37.947787732622906, "lng": 145.22733554560895 }, "geometry": { "type": "Polygon", "coordinates": [ [ [ 145.226800700000013, -37.9474757 ], [ 145.2268367, -37.9474025 ], [ 145.2268882, -37.9473354 ], [ 145.2270364, -37.9472645 ], [ 145.2272001, -37.9472089 ], [ 145.2273636, -37.9471851 ], [ 145.2275232, -37.9471705 ], [ 145.2276204, -37.9471687 ], [ 145.2276904, -37.9471712 ], [ 145.2277566, -37.9471859 ], [ 145.2278152, -37.9472299 ], [ 145.227864, -37.9472846 ], [ 145.2278882, -37.947336 ], [ 145.2278186, -37.9475756 ], [ 145.2276756, -37.947928 ], [ 145.2274746, -37.9485322 ], [ 145.2274509, -37.9485771 ], [ 145.2274157, -37.9486221 ], [ 145.2273722, -37.94866 ], [ 145.2273126, -37.9486698 ], [ 145.227258799999987, -37.9486689 ], [ 145.2272154, -37.9486555 ], [ 145.227174100000013, -37.9486284 ], [ 145.227137699999986, -37.9485925 ], [ 145.2271101, -37.948554 ], [ 145.227090299999986, -37.9485094 ], [ 145.227076399999987, -37.9483186 ], [ 145.2270567, -37.9481217 ], [ 145.2270154, -37.9480068 ], [ 145.226970200000011, -37.9479071 ], [ 145.2268468, -37.9477014 ], [ 145.22682, -37.9476419 ], [ 145.2267931, -37.9475824 ], [ 145.226791100000014, -37.9475275 ], [ 145.226800700000013, -37.9474757 ] ] ] } },
{ "type": "Feature", "properties": { "osm_type": "node", "osm_id": 10119997016, "name": "nan", "full_name": "natural tree", "lat": -37.9476316, "lng": 145.2266637 }, "geometry": { "type": "Point", "coordinates": [ 145.226663699999989, -37.9476316 ] } },
{ "type": "Feature", "properties": { "osm_type": "node", "osm_id": 10120026021, "name": "nan", "full_name": "natural tree", "lat": -37.9469325, "lng": 145.2260461 }, "geometry": { "type": "Point", "coordinates": [ 145.2260461, -37.9469325 ] } },
{ "type": "Feature", "properties": { "osm_type": "node", "osm_id": 10120026020, "name": "nan", "full_name": "natural tree", "lat": -37.9469995, "lng": 145.2260815 }, "geometry": { "type": "Point", "coordinates": [ 145.2260815, -37.9469995 ] } },
{ "type": "Feature", "properties": { "osm_type": "node", "osm_id": 10120026019, "name": "nan", "full_name": "natural tree", "lat": -37.9471418, "lng": 145.226216 }, "geometry": { "type": "Point", "coordinates": [ 145.226216, -37.9471418 ] } },
{ "type": "Feature", "properties": { "osm_type": "node", "osm_id": 10120026018, "name": "nan", "full_name": "natural tree", "lat": -37.9473023, "lng": 145.2263912 }, "geometry": { "type": "Point", "coordinates": [ 145.2263912, -37.9473023 ] } },
{ "type": "Feature", "properties": { "osm_type": "node", "osm_id": 10120026017, "name": "nan", "full_name": "natural tree", "lat": -37.9474851, "lng": 145.2265292 }, "geometry": { "type": "Point", "coordinates": [ 145.226529199999987, -37.9474851 ] } },
{ "type": "Feature", "properties": { "osm_type": "node", "osm_id": 10119997015, "name": "nan", "full_name": "natural tree", "lat": -37.9470902, "lng": 145.2267044 }, "geometry": { "type": "Point", "coordinates": [ 145.226704399999988, -37.9470902 ] } },
{ "type": "Feature", "properties": { "osm_type": "node", "osm_id": 10119997014, "name": "nan", "full_name": "natural tree", "lat": -37.9470957, "lng": 145.2265876 }, "geometry": { "type": "Point", "coordinates": [ 145.226587599999988, -37.9470957 ] } }
]
}
