{
"type": "FeatureCollection",
"crs": { "type": "name", "properties": { "name": "urn:ogc:def:crs:OGC:1.3:CRS84" } },
"features": [
{ "type": "Feature", "properties": { "osm_type": "way", "osm_id": 687712378, "name": "The Grand Hotel", "full_name": "The Grand Hotel building", "lat": -34.183350849456517, "lng": 142.16340353701079 }, "geometry": { "type": "Polygon", "coordinates": [ [ [ 142.163330699999989, -34.1828715 ], [ 142.162867799999987, -34.1832518 ], [ 142.162959699999988, -34.1833254 ], [ 142.1629427, -34.1833395 ], [ 142.1630585, -34.1834344 ], [ 142.163103, -34.1833975 ], [ 142.1630834, -34.1833797 ], [ 142.1630987, -34.1833667 ], [ 142.1636851, -34.1838581 ], [ 142.1639224, -34.1836593 ], [ 142.163884200000012, -34.1836291 ], [ 142.163845, -34.1836598 ], [ 142.1636963, -34.1835375 ], [ 142.163769800000011, -34.1834773 ], [ 142.1637541, -34.1834648 ], [ 142.1637974, -34.1834262 ], [ 142.1637676, -34.1834021 ], [ 142.1637723, -34.183398 ], [ 142.163571600000012, -34.1832369 ], [ 142.163607399999989, -34.1832074 ], [ 142.1634953, -34.1831166 ], [ 142.163565299999988, -34.1830633 ], [ 142.163330699999989, -34.1828715 ] ] ] } },
{ "type": "Feature", "properties": { "osm_type": "node", "osm_id": 6447193927, "name": "Mildura Grand", "full_name": "Mildura Grand brand Quality Inn tourism hotel", "lat": -34.1830237, "lng": 142.1634148 }, "geometry": { "type": "Point", "coordinates": [ 142.1634148, -34.1830237 ] } },
{ "type": "Feature", "properties": { "osm_type": "node", "osm_id": 6457257750, "name": "The Palace Collection", "full_name": "The Palace Collection shop antiques", "lat": -34.1840152, "lng": 142.1619954 }, "geometry": { "type": "Point", "coordinates": [ 142.1619954, -34.1840152 ] } },
{ "type": "Feature", "properties": { "osm_type": "node", "osm_id": 2932745286, "name": "nan", "full_name": "amenity toilets", "lat": -34.182735, "lng": 142.1655919 }, "geometry": { "type": "Point", "coordinates": [ 142.16559190000001, -34.182735 ] } },
{ "type": "Feature", "properties": { "osm_type": "node", "osm_id": 1581955590, "name": "The Prince & Princess of Wales Fountain Plaza", "full_name": "The Prince & Princess of Wales Fountain Plaza amenity fountain", "lat": -34.1834511, "lng": 142.1646364 }, "geometry": { "type": "Point", "coordinates": [ 142.1646364, -34.1834511 ] } },
{ "type": "Feature", "properties": { "osm_type": "node", "osm_id": 2932745267, "name": "Midura Brewery Pub", "full_name": "Midura Brewery Pub amenity restaurant email enquiries@mildurabrewery.com.au brewery microbrewery takeaway wheelchair", "lat": -34.1833548, "lng": 142.1627989 }, "geometry": { "type": "Point", "coordinates": [ 142.162798900000013, -34.1833548 ] } },
{ "type": "Feature", "properties": { "osm_type": "node", "osm_id": 6471387906, "name": "Royal Copenhagen", "full_name": "Royal Copenhagen amenity ice_cream email info@rcicecream.com.au phone +61 2 9997 2296", "lat": -34.1844051, "lng": 142.162127 }, "geometry": { "type": "Point", "coordinates": [ 142.162127, -34.1844051 ] } },
{ "type": "Feature", "properties": { "osm_type": "node", "osm_id": 9375912906, "name": "nan", "full_name": "amenity drinking_water", "lat": -34.1817665, "lng": 142.1648954 }, "geometry": { "type": "Point", "coordinates": [ 142.1648954, -34.1817665 ] } },
{ "type": "Feature", "properties": { "osm_type": "node", "osm_id": 6457257748, "name": "Sawasdee Thai Orchid", "full_name": "Sawasdee Thai Orchid amenity cafe cuisine thai", "lat": -34.1838674, "lng": 142.1621533 }, "geometry": { "type": "Point", "coordinates": [ 142.1621533, -34.1838674 ] } },
{ "type": "Feature", "properties": { "osm_type": "node", "osm_id": 6457257740, "name": "Duncan's Bottle Shop", "full_name": "Duncan's Bottle Shop shop alcohol", "lat": -34.1837443, "lng": 142.1637874 }, "geometry": { "type": "Point", "coordinates": [ 142.1637874, -34.1837443 ] } }
]
}
