{
"type": "FeatureCollection",
"crs": { "type": "name", "properties": { "name": "urn:ogc:def:crs:OGC:1.3:CRS84" } },
"features": [
{ "type": "Feature", "properties": { "osm_type": "node", "osm_id": 4422320390, "name": "Café Andiamo", "full_name": "Café Andiamo phone +61 3 9650 8060 level 0 amenity restaurant outdoor_seating check_date 2022-07-20 cuisine italian", "lat": -37.8171057, "lng": 144.9657409 }, "geometry": { "type": "Point", "coordinates": [ 144.965740899999986, -37.8171057 ] } },
{ "type": "Feature", "properties": { "osm_type": "node", "osm_id": 9898727372, "name": "Swanson's Halal Food Centre", "full_name": "Swanson's Halal Food Centre level 0 amenity fast_food check_date 2022-07-20 cuisine kebab;pizza", "lat": -37.816773, "lng": 144.9669374 }, "geometry": { "type": "Point", "coordinates": [ 144.9669374, -37.816773 ] } },
{ "type": "Feature", "properties": { "osm_type": "node", "osm_id": 591294594, "name": "7-Eleven", "full_name": "7-Eleven brand 7-Eleven level 0 opening_hours 24/7 shop convenience check_date 2022-07-20", "lat": -37.8166015, "lng": 144.9668331 }, "geometry": { "type": "Point", "coordinates": [ 144.9668331, -37.8166015 ] } },
{ "type": "Feature", "properties": { "osm_type": "node", "osm_id": 1005020984, "name": "Om", "full_name": "Om amenity restaurant opening_hours 11:00-21:00 cuisine indian", "lat": -37.815828, "lng": 144.96638 }, "geometry": { "type": "Point", "coordinates": [ 144.96638, -37.815828 ] } },
{ "type": "Feature", "properties": { "osm_type": "node", "osm_id": 2163364028, "name": "Flinders Street Bakehouse", "full_name": "Flinders Street Bakehouse level 0 wheelchair shop bakery", "lat": -37.8180641, "lng": 144.9673546 }, "geometry": { "type": "Point", "coordinates": [ 144.9673546, -37.8180641 ] } },
{ "type": "Feature", "properties": { "osm_type": "node", "osm_id": 1005020304, "name": "Lord of the Fries", "full_name": "Lord of the Fries brand Lord of the Fries phone +61 3 9620 4876 level 0 amenity fast_food opening_hours Mo 10:00-19:00; Tu-We 10:00-21:00; Th 10:00-22:00; Fr 10:00-00:00; Sa 11:00-02:00; Su 11:00-20:00 wheelchair cuisine burger takeaway", "lat": -37.818122, "lng": 144.9673805 }, "geometry": { "type": "Point", "coordinates": [ 144.9673805, -37.818122 ] } },
{ "type": "Feature", "properties": { "osm_type": "node", "osm_id": 591294592, "name": "Subway", "full_name": "Subway brand Subway level 0 amenity fast_food opening_hours 24/7 check_date 2022-07-20 cuisine sandwich takeaway", "lat": -37.8166258, "lng": 144.9668517 }, "geometry": { "type": "Point", "coordinates": [ 144.9668517, -37.8166258 ] } },
{ "type": "Feature", "properties": { "osm_type": "node", "osm_id": 10225319717, "name": "Bared Footware", "full_name": "Bared Footware phone +61 3 9509 5771 opening_hours Mo-Th,Sa 10:00-18:00; Fr 10:00-19:00; Su 10:00-17:00 shop shoes email Info@bared.com.au", "lat": -37.8164765, "lng": 144.9661465 }, "geometry": { "type": "Point", "coordinates": [ 144.9661465, -37.8164765 ] } },
{ "type": "Feature", "properties": { "osm_type": "node", "osm_id": 9898780797, "name": "Roule Galette", "full_name": "Roule Galette level 0 amenity cafe opening_hours Tu-Th 08:00-20:00; Fr 08:00-21:30; PH closed; Sa 09:00-21:00; Su 09:00-17:00; Mo closed check_date 2022-07-20 cuisine french", "lat": -37.8167558, "lng": 144.9662846 }, "geometry": { "type": "Point", "coordinates": [ 144.9662846, -37.8167558 ] } },
{ "type": "Feature", "properties": { "osm_type": "node", "osm_id": 2215598766, "name": "Beer De Luxe", "full_name": "Beer De Luxe phone +61 3 9810 0093 level 0;1 amenity pub opening_hours Mo-Th 12:00-22:00; Fr-Sa 12:00-23:00; Su 12:00-21:00 wheelchair outdoor_seating brewery various", "lat": -37.8175422, "lng": 144.9694062 }, "geometry": { "type": "Point", "coordinates": [ 144.9694062, -37.8175422 ] } }
]
}
