{
"type": "FeatureCollection",
"crs": { "type": "name", "properties": { "name": "urn:ogc:def:crs:OGC:1.3:CRS84" } },
"features": [
{ "type": "Feature", "properties": { "osm_type": "node", "osm_id": 3984925975, "name": "Angelo's Organic", "full_name": "Angelo's Organic shop greengrocer", "lat": -37.8205879, "lng": 145.1512162 }, "geometry": { "type": "Point", "coordinates": [ 145.1512162, -37.8205879 ] } },
{ "type": "Feature", "properties": { "osm_type": "node", "osm_id": 10906095738, "name": "Cellarbrations Blackburn fine wines", "full_name": "Cellarbrations Blackburn fine wines shop alcohol", "lat": -37.8205227, "lng": 145.1521539 }, "geometry": { "type": "Point", "coordinates": [ 145.1521539, -37.8205227 ] } },
{ "type": "Feature", "properties": { "osm_type": "node", "osm_id": 3984925961, "name": "Darvid's Pizza Blackburn", "full_name": "Darvid's Pizza Blackburn amenity fast_food cuisine pizza delivery takeaway", "lat": -37.820638, "lng": 145.1504684 }, "geometry": { "type": "Point", "coordinates": [ 145.1504684, -37.820638 ] } },
{ "type": "Feature", "properties": { "osm_type": "node", "osm_id": 9978628865, "name": "Blackburn Asian Cuisine", "full_name": "Blackburn Asian Cuisine amenity fast_food", "lat": -37.820664, "lng": 145.1503359 }, "geometry": { "type": "Point", "coordinates": [ 145.150335899999988, -37.820664 ] } },
{ "type": "Feature", "properties": { "osm_type": "node", "osm_id": 11106969432, "name": "South Paradise Seafood", "full_name": "South Paradise Seafood amenity fast_food cuisine fish_and_chips", "lat": -37.8206719, "lng": 145.1504266 }, "geometry": { "type": "Point", "coordinates": [ 145.1504266, -37.8206719 ] } },
{ "type": "Feature", "properties": { "osm_type": "node", "osm_id": 7105938173, "name": "nan", "full_name": "amenity cafe outdoor_seating sidewalk", "lat": -37.8206278, "lng": 145.1502412 }, "geometry": { "type": "Point", "coordinates": [ 145.150241200000011, -37.8206278 ] } },
{ "type": "Feature", "properties": { "osm_type": "node", "osm_id": 9064984447, "name": "nan", "full_name": "diameter 1.5m natural tree", "lat": -37.8199512, "lng": 145.1499315 }, "geometry": { "type": "Point", "coordinates": [ 145.1499315, -37.8199512 ] } },
{ "type": "Feature", "properties": { "osm_type": "node", "osm_id": 9064984446, "name": "nan", "full_name": "diameter 1.5m natural tree", "lat": -37.8199852, "lng": 145.1501893 }, "geometry": { "type": "Point", "coordinates": [ 145.1501893, -37.8199852 ] } },
{ "type": "Feature", "properties": { "osm_type": "node", "osm_id": 10836221702, "name": "nan", "full_name": "amenity bicycle_parking", "lat": -37.8203548, "lng": 145.1510444 }, "geometry": { "type": "Point", "coordinates": [ 145.151044399999989, -37.8203548 ] } },
{ "type": "Feature", "properties": { "osm_type": "node", "osm_id": 10836221701, "name": "nan", "full_name": "amenity bicycle_parking", "lat": -37.8203779, "lng": 145.150847 }, "geometry": { "type": "Point", "coordinates": [ 145.150847, -37.8203779 ] } }
]
}
