{
"type": "FeatureCollection",
"crs": { "type": "name", "properties": { "name": "urn:ogc:def:crs:OGC:1.3:CRS84" } },
"features": [
{ "type": "Feature", "properties": { "osm_type": "node", "osm_id": 1621492964, "name": "Bella Cuccina Cafe", "full_name": "Bella Cuccina Cafe amenity cafe", "lat": -38.0673256, "lng": 145.4536111 }, "geometry": { "type": "Point", "coordinates": [ 145.453611099999989, -38.0673256 ] } },
{ "type": "Feature", "properties": { "osm_type": "node", "osm_id": 9884498779, "name": "nan", "full_name": "natural tree", "lat": -38.0654346, "lng": 145.4495737 }, "geometry": { "type": "Point", "coordinates": [ 145.4495737, -38.0654346 ] } },
{ "type": "Feature", "properties": { "osm_type": "node", "osm_id": 10745081231, "name": "nan", "full_name": "natural tree", "lat": -38.0652574, "lng": 145.4534081 }, "geometry": { "type": "Point", "coordinates": [ 145.4534081, -38.0652574 ] } },
{ "type": "Feature", "properties": { "osm_type": "node", "osm_id": 10745081232, "name": "nan", "full_name": "natural tree", "lat": -38.0653377, "lng": 145.4534534 }, "geometry": { "type": "Point", "coordinates": [ 145.4534534, -38.0653377 ] } },
{ "type": "Feature", "properties": { "osm_type": "node", "osm_id": 9884591223, "name": "nan", "full_name": "natural tree", "lat": -38.0681208, "lng": 145.4526823 }, "geometry": { "type": "Point", "coordinates": [ 145.4526823, -38.0681208 ] } },
{ "type": "Feature", "properties": { "osm_type": "node", "osm_id": 9884591222, "name": "nan", "full_name": "natural tree", "lat": -38.0680519, "lng": 145.4526417 }, "geometry": { "type": "Point", "coordinates": [ 145.452641699999987, -38.0680519 ] } },
{ "type": "Feature", "properties": { "osm_type": "node", "osm_id": 9884591221, "name": "nan", "full_name": "natural tree", "lat": -38.0679167, "lng": 145.4525726 }, "geometry": { "type": "Point", "coordinates": [ 145.4525726, -38.0679167 ] } },
{ "type": "Feature", "properties": { "osm_type": "node", "osm_id": 9884498773, "name": "nan", "full_name": "natural tree", "lat": -38.0656893, "lng": 145.4501837 }, "geometry": { "type": "Point", "coordinates": [ 145.4501837, -38.0656893 ] } },
{ "type": "Feature", "properties": { "osm_type": "node", "osm_id": 9884498774, "name": "nan", "full_name": "natural tree", "lat": -38.0653327, "lng": 145.4496836 }, "geometry": { "type": "Point", "coordinates": [ 145.449683599999986, -38.0653327 ] } },
{ "type": "Feature", "properties": { "osm_type": "node", "osm_id": 9884498775, "name": "nan", "full_name": "natural tree", "lat": -38.0653498, "lng": 145.4498175 }, "geometry": { "type": "Point", "coordinates": [ 145.4498175, -38.0653498 ] } }
]
}
