{
"type": "FeatureCollection",
"crs": { "type": "name", "properties": { "name": "urn:ogc:def:crs:OGC:1.3:CRS84" } },
"features": [
{ "type": "Feature", "properties": { "osm_type": "node", "osm_id": 2318297625, "name": "Great Petition", "full_name": "Great Petition artwork_type sculpture tourism artwork description Large-scale sculpture unveiled in December 2008 to celebrate the 100th anniversary of women's right to vote in Victoria. The sculpture is a white scroll-like structure, which is twenty metres long and imposing on the small reserve. start_date 2008-12 artist_name Susan Hewitt;Penelope Lee", "lat": -37.811497, "lng": 144.975175 }, "geometry": { "type": "Point", "coordinates": [ 144.975175, -37.811497 ] } },
{ "type": "Feature", "properties": { "osm_type": "node", "osm_id": 11297601673, "name": "Victorian Marriage Registry", "full_name": "Victorian Marriage Registry wheelchair office government government register_office", "lat": -37.8130923, "lng": 144.9743266 }, "geometry": { "type": "Point", "coordinates": [ 144.974326600000012, -37.8130923 ] } },
{ "type": "Feature", "properties": { "osm_type": "node", "osm_id": 6761103618, "name": "Government of Victoria", "full_name": "Government of Victoria tourism information information guidepost", "lat": -37.8122462, "lng": 144.9746319 }, "geometry": { "type": "Point", "coordinates": [ 144.9746319, -37.8122462 ] } },
{ "type": "Feature", "properties": { "osm_type": "node", "osm_id": 5583284754, "name": "Lily Blacks", "full_name": "Lily Blacks amenity bar", "lat": -37.8123218, "lng": 144.9724243 }, "geometry": { "type": "Point", "coordinates": [ 144.9724243, -37.8123218 ] } },
{ "type": "Feature", "properties": { "osm_type": "node", "osm_id": 2692539014, "name": "Pastor Sir Douglas and Lady Gladys Nicholls Memorial", "full_name": "Pastor Sir Douglas and Lady Gladys Nicholls Memorial artwork_type sculpture tourism artwork description Prominent campaigners for Indigenous rights and justice, and it is the first memorial sculpture in Melbourne dedicated to Aboriginal leaders. source survey historic memorial start_date 2007-12-09 artist_name Louis Laumen (sculptor);Ngarra Murray (etching artwork) memorial statue", "lat": -37.8099324, "lng": 144.9737105 }, "geometry": { "type": "Point", "coordinates": [ 144.97371050000001, -37.8099324 ] } },
{ "type": "Feature", "properties": { "osm_type": "node", "osm_id": 6806674795, "name": "Anda", "full_name": "Anda amenity cafe", "lat": -37.809638, "lng": 144.9720241 }, "geometry": { "type": "Point", "coordinates": [ 144.9720241, -37.809638 ] } },
{ "type": "Feature", "properties": { "osm_type": "node", "osm_id": 4469522989, "name": "Hon. George Higinbotham", "full_name": "Hon. George Higinbotham artwork_type statue tourism artwork description George Higinbotham, 1826-1892, politician, Chief Justice of the Supreme Court of Victoria start_date 1937 material bronze", "lat": -37.8128727, "lng": 144.974253 }, "geometry": { "type": "Point", "coordinates": [ 144.974253, -37.8128727 ] } },
{ "type": "Feature", "properties": { "osm_type": "node", "osm_id": 589396597, "name": "nan", "full_name": "amenity toilets access operator Melbourne City Council unisex", "lat": -37.8122563, "lng": 144.9738619 }, "geometry": { "type": "Point", "coordinates": [ 144.9738619, -37.8122563 ] } },
{ "type": "Feature", "properties": { "osm_type": "node", "osm_id": 2692539155, "name": "nan", "full_name": "amenity drinking_water check_date 2023-09-05 source survey fountain bubbler", "lat": -37.8097414, "lng": 144.9739213 }, "geometry": { "type": "Point", "coordinates": [ 144.9739213, -37.8097414 ] } },
{ "type": "Feature", "properties": { "osm_type": "node", "osm_id": 2019191934, "name": "Madame Brussels", "full_name": "Madame Brussels amenity cafe outdoor_seating wheelchair note On the roof!", "lat": -37.8119505, "lng": 144.971546 }, "geometry": { "type": "Point", "coordinates": [ 144.971546, -37.8119505 ] } }
]
}
