{
"type": "FeatureCollection",
"crs": { "type": "name", "properties": { "name": "urn:ogc:def:crs:OGC:1.3:CRS84" } },
"features": [
{ "type": "Feature", "properties": { "osm_type": "node", "osm_id": 4269463947, "name": "Josef George Jewelry", "full_name": "Josef George Jewelry shop jewelry", "lat": -37.8165879, "lng": 144.9648642 }, "geometry": { "type": "Point", "coordinates": [ 144.9648642, -37.8165879 ] } },
{ "type": "Feature", "properties": { "osm_type": "node", "osm_id": 9898727373, "name": "Dean's Souvenirs Australiana", "full_name": "Dean's Souvenirs Australiana shop gift check_date 2022-07-20 level 0 gift souvenirs", "lat": -37.8168105, "lng": 144.9669339 }, "geometry": { "type": "Point", "coordinates": [ 144.966933899999987, -37.8168105 ] } },
{ "type": "Feature", "properties": { "osm_type": "way", "osm_id": 46740019, "name": "David Jones", "full_name": "David Jones brand David Jones building shop department_store construction landuse construction", "lat": -37.814362640290803, "lng": 144.96490609777769 }, "geometry": { "type": "Polygon", "coordinates": [ [ [ 144.9645885, -37.8139783 ], [ 144.9647114, -37.8139418 ], [ 144.964809699999989, -37.8139126 ], [ 144.964953400000013, -37.8142203 ], [ 144.9649909, -37.8142097 ], [ 144.9652251, -37.814714 ], [ 144.9650829, -37.8147513 ], [ 144.9649614, -37.8147903 ], [ 144.9645885, -37.8139783 ] ] ] } },
{ "type": "Feature", "properties": { "osm_type": "node", "osm_id": 3276141236, "name": "Australian College of Hair Design And Beauty", "full_name": "Australian College of Hair Design And Beauty amenity college", "lat": -37.8165633, "lng": 144.9663088 }, "geometry": { "type": "Point", "coordinates": [ 144.9663088, -37.8165633 ] } },
{ "type": "Feature", "properties": { "osm_type": "node", "osm_id": 591294591, "name": "Arthur Daley's Clearance House", "full_name": "Arthur Daley's Clearance House shop second_hand", "lat": -37.816643, "lng": 144.966841 }, "geometry": { "type": "Point", "coordinates": [ 144.966841, -37.816643 ] } },
{ "type": "Feature", "properties": { "osm_type": "node", "osm_id": 11466788780, "name": "Hub Australia", "full_name": "Hub Australia office company", "lat": -37.8162184, "lng": 144.9681808 }, "geometry": { "type": "Point", "coordinates": [ 144.9681808, -37.8162184 ] } },
{ "type": "Feature", "properties": { "osm_type": "node", "osm_id": 10225319717, "name": "Bared Footware", "full_name": "Bared Footware email Info@bared.com.au phone +61 3 9509 5771 opening_hours Mo-Th,Sa 10:00-18:00; Fr 10:00-19:00; Su 10:00-17:00 shop shoes", "lat": -37.8164765, "lng": 144.9661465 }, "geometry": { "type": "Point", "coordinates": [ 144.9661465, -37.8164765 ] } },
{ "type": "Feature", "properties": { "osm_type": "node", "osm_id": 4269463945, "name": "Tafts the Pen people", "full_name": "Tafts the Pen people shop stationery", "lat": -37.8160573, "lng": 144.9652223 }, "geometry": { "type": "Point", "coordinates": [ 144.9652223, -37.8160573 ] } },
{ "type": "Feature", "properties": { "osm_type": "node", "osm_id": 7263858632, "name": "nan", "full_name": "tourism information level 1 description Plaque commemorating the site of the first Tanderrum, performed by the Kulin Nation, since colonialisation in 1835. information board board_type history", "lat": -37.8180124, "lng": 144.9692371 }, "geometry": { "type": "Point", "coordinates": [ 144.969237099999987, -37.8180124 ] } },
{ "type": "Feature", "properties": { "osm_type": "node", "osm_id": 592838036, "name": "Flinders Lane Dry Cleaners", "full_name": "Flinders Lane Dry Cleaners shop dry_cleaning", "lat": -37.8159734, "lng": 144.9689591 }, "geometry": { "type": "Point", "coordinates": [ 144.9689591, -37.8159734 ] } }
]
}
