{
"type": "FeatureCollection",
"crs": { "type": "name", "properties": { "name": "urn:ogc:def:crs:OGC:1.3:CRS84" } },
"features": [
{ "type": "Feature", "properties": { "osm_type": "node", "osm_id": 5195526338, "name": "Breadtop", "full_name": "Breadtop brand Breadtop cuisine chinese shop bakery", "lat": -37.9511483, "lng": 145.1522696 }, "geometry": { "type": "Point", "coordinates": [ 145.152269600000011, -37.9511483 ] } },
{ "type": "Feature", "properties": { "osm_type": "node", "osm_id": 5203746966, "name": "Bread Kingdom", "full_name": "Bread Kingdom shop bakery", "lat": -37.951293, "lng": 145.1512632 }, "geometry": { "type": "Point", "coordinates": [ 145.151263199999988, -37.951293 ] } },
{ "type": "Feature", "properties": { "osm_type": "node", "osm_id": 5203747015, "name": "HS Cakes", "full_name": "HS Cakes shop bakery", "lat": -37.9514109, "lng": 145.1509338 }, "geometry": { "type": "Point", "coordinates": [ 145.1509338, -37.9514109 ] } },
{ "type": "Feature", "properties": { "osm_type": "node", "osm_id": 5213706408, "name": "TT Bakehouse", "full_name": "TT Bakehouse shop bakery", "lat": -37.9539234, "lng": 145.1517585 }, "geometry": { "type": "Point", "coordinates": [ 145.1517585, -37.9539234 ] } },
{ "type": "Feature", "properties": { "osm_type": "node", "osm_id": 5213706349, "name": "Tabac Bakery", "full_name": "Tabac Bakery shop bakery", "lat": -37.9526597, "lng": 145.151973 }, "geometry": { "type": "Point", "coordinates": [ 145.151973, -37.9526597 ] } },
{ "type": "Feature", "properties": { "osm_type": "node", "osm_id": 5203208546, "name": "Bonbons", "full_name": "Bonbons shop bakery", "lat": -37.9511673, "lng": 145.1516267 }, "geometry": { "type": "Point", "coordinates": [ 145.1516267, -37.9511673 ] } },
{ "type": "Feature", "properties": { "osm_type": "node", "osm_id": 5195525702, "name": "Bread & Cafe Delight", "full_name": "Bread & Cafe Delight shop bakery", "lat": -37.951048, "lng": 145.1515486 }, "geometry": { "type": "Point", "coordinates": [ 145.151548600000012, -37.951048 ] } },
{ "type": "Feature", "properties": { "osm_type": "node", "osm_id": 10825897659, "name": "Bun Bun Bakery", "full_name": "Bun Bun Bakery shop bakery opening_hours Mo-Su 06:00-18:00 phone +61 3 9547 8289", "lat": -37.9521969, "lng": 145.1520788 }, "geometry": { "type": "Point", "coordinates": [ 145.1520788, -37.9521969 ] } },
{ "type": "Feature", "properties": { "osm_type": "node", "osm_id": 5195526345, "name": "Sieu Ky Poultry", "full_name": "Sieu Ky Poultry shop butcher", "lat": -37.9507808, "lng": 145.1518552 }, "geometry": { "type": "Point", "coordinates": [ 145.1518552, -37.9507808 ] } },
{ "type": "Feature", "properties": { "osm_type": "node", "osm_id": 5202160715, "name": "J.T. Butcher & Seafood", "full_name": "J.T. Butcher & Seafood shop butcher", "lat": -37.9522723, "lng": 145.1511461 }, "geometry": { "type": "Point", "coordinates": [ 145.1511461, -37.9522723 ] } }
]
}
