{
"type": "FeatureCollection",
"crs": { "type": "name", "properties": { "name": "urn:ogc:def:crs:OGC:1.3:CRS84" } },
"features": [
{ "type": "Feature", "properties": { "osm_type": "node", "osm_id": 6418821646, "name": "K175 Locomotive", "full_name": "K175 Locomotive tourism attraction", "lat": -34.1803226, "lng": 142.1635428 }, "geometry": { "type": "Point", "coordinates": [ 142.163542799999988, -34.1803226 ] } },
{ "type": "Feature", "properties": { "osm_type": "way", "osm_id": 666063024, "name": "Jaycee Park Playground", "full_name": "Jaycee Park Playground leisure playground", "lat": -34.180602747326546, "lng": 142.16316116741112 }, "geometry": { "type": "Polygon", "coordinates": [ [ [ 142.1630093, -34.18058 ], [ 142.1631299, -34.1805432 ], [ 142.1632654, -34.1805441 ], [ 142.1632894, -34.1806591 ], [ 142.1631593, -34.1806624 ], [ 142.163069400000012, -34.1806429 ], [ 142.163033, -34.1806341 ], [ 142.1630093, -34.18058 ] ] ] } },
{ "type": "Feature", "properties": { "osm_type": "node", "osm_id": 6418821644, "name": "nan", "full_name": "leisure picnic_table", "lat": -34.1804689, "lng": 142.1636477 }, "geometry": { "type": "Point", "coordinates": [ 142.163647700000013, -34.1804689 ] } },
{ "type": "Feature", "properties": { "osm_type": "node", "osm_id": 9371359359, "name": "nan", "full_name": "leisure picnic_table", "lat": -34.1807182, "lng": 142.1633505 }, "geometry": { "type": "Point", "coordinates": [ 142.1633505, -34.1807182 ] } },
{ "type": "Feature", "properties": { "osm_type": "node", "osm_id": 9371359358, "name": "nan", "full_name": "leisure picnic_table", "lat": -34.1806421, "lng": 142.1635047 }, "geometry": { "type": "Point", "coordinates": [ 142.1635047, -34.1806421 ] } },
{ "type": "Feature", "properties": { "osm_type": "node", "osm_id": 6418821645, "name": "nan", "full_name": "leisure picnic_table", "lat": -34.1804231, "lng": 142.1636978 }, "geometry": { "type": "Point", "coordinates": [ 142.1636978, -34.1804231 ] } },
{ "type": "Feature", "properties": { "osm_type": "node", "osm_id": 9371359357, "name": "nan", "full_name": "leisure picnic_table", "lat": -34.1805304, "lng": 142.1633859 }, "geometry": { "type": "Point", "coordinates": [ 142.1633859, -34.1805304 ] } },
{ "type": "Feature", "properties": { "osm_type": "node", "osm_id": 9371359356, "name": "nan", "full_name": "leisure picnic_table", "lat": -34.180486, "lng": 142.1635325 }, "geometry": { "type": "Point", "coordinates": [ 142.1635325, -34.180486 ] } },
{ "type": "Feature", "properties": { "osm_type": "node", "osm_id": 6477972801, "name": "Bill Hyder Scented Garden", "full_name": "Bill Hyder Scented Garden leisure garden", "lat": -34.1816196, "lng": 142.1644296 }, "geometry": { "type": "Point", "coordinates": [ 142.1644296, -34.1816196 ] } },
{ "type": "Feature", "properties": { "osm_type": "node", "osm_id": 2917316636, "name": "nan", "full_name": "natural tree", "lat": -34.1818445, "lng": 142.1625449 }, "geometry": { "type": "Point", "coordinates": [ 142.1625449, -34.1818445 ] } }
]
}
