{
"type": "FeatureCollection",
"crs": { "type": "name", "properties": { "name": "urn:ogc:def:crs:OGC:1.3:CRS84" } },
"features": [
{ "type": "Feature", "properties": { "osm_type": "node", "osm_id": 3953109459, "name": "Teahouse @ gbg", "full_name": "Teahouse @ gbg amenity cafe opening_hours Mo-Fr 10:00-15:00, Sa-Su 10:00-16:00", "lat": -38.1499134, "lng": 144.3772495 }, "geometry": { "type": "Point", "coordinates": [ 144.3772495, -38.1499134 ] } },
{ "type": "Feature", "properties": { "osm_type": "way", "osm_id": 266502424, "name": "Botanic Garden Public Conservatory", "full_name": "Botanic Garden Public Conservatory height 5.374 building greenhouse", "lat": -38.149301900211121, "lng": 144.37739925188362 }, "geometry": { "type": "Polygon", "coordinates": [ [ [ 144.3775228, -38.149194 ], [ 144.377499199999988, -38.1492912 ], [ 144.3774635, -38.1494382 ], [ 144.3773696, -38.149424 ], [ 144.377275700000013, -38.1494098 ], [ 144.3773055, -38.1492871 ], [ 144.377335, -38.1491656 ], [ 144.377428900000012, -38.1491798 ], [ 144.3775228, -38.149194 ] ] ] } },
{ "type": "Feature", "properties": { "osm_type": "node", "osm_id": 11176574018, "name": "nan", "full_name": "natural tree crown_type i", "lat": -38.1501691, "lng": 144.3776936 }, "geometry": { "type": "Point", "coordinates": [ 144.377693599999986, -38.1501691 ] } },
{ "type": "Feature", "properties": { "osm_type": "node", "osm_id": 11176574017, "name": "nan", "full_name": "natural tree crown_type i", "lat": -38.1501767, "lng": 144.3776516 }, "geometry": { "type": "Point", "coordinates": [ 144.3776516, -38.1501767 ] } },
{ "type": "Feature", "properties": { "osm_type": "node", "osm_id": 8141405186, "name": "nan", "full_name": "natural tree", "lat": -38.1486908, "lng": 144.3771299 }, "geometry": { "type": "Point", "coordinates": [ 144.3771299, -38.1486908 ] } },
{ "type": "Feature", "properties": { "osm_type": "node", "osm_id": 8141405159, "name": "nan", "full_name": "natural tree", "lat": -38.1482575, "lng": 144.3789533 }, "geometry": { "type": "Point", "coordinates": [ 144.3789533, -38.1482575 ] } },
{ "type": "Feature", "properties": { "osm_type": "node", "osm_id": 8141405166, "name": "nan", "full_name": "natural tree", "lat": -38.1514998, "lng": 144.3790581 }, "geometry": { "type": "Point", "coordinates": [ 144.3790581, -38.1514998 ] } },
{ "type": "Feature", "properties": { "osm_type": "node", "osm_id": 8141405168, "name": "nan", "full_name": "natural tree", "lat": -38.1500714, "lng": 144.3751079 }, "geometry": { "type": "Point", "coordinates": [ 144.375107899999989, -38.1500714 ] } },
{ "type": "Feature", "properties": { "osm_type": "node", "osm_id": 8141405169, "name": "nan", "full_name": "natural tree", "lat": -38.1504593, "lng": 144.375288 }, "geometry": { "type": "Point", "coordinates": [ 144.375288, -38.1504593 ] } },
{ "type": "Feature", "properties": { "osm_type": "node", "osm_id": 8141405172, "name": "nan", "full_name": "natural tree", "lat": -38.1484078, "lng": 144.3794369 }, "geometry": { "type": "Point", "coordinates": [ 144.3794369, -38.1484078 ] } }
]
}
